Lake Name,Waterbody Inventory Number,PWL ID,Elevation (meters),Area (hectares),Class,County,Town,Watershed Area (hectares),Mean Depth (meters),Watershed Name,Bathymetric Map available?,Public Access Description,Public Access?,CSLAP Number,Public/Private Access,Latitude,Longitude,Number of Years Sampled,Trophic State,Sampling Years,Depth (feet),Area (acres),Last Year Sampled,Georeference
Lime Lake,Ont 158..E-23-48-3-P130,0104-0001,499,62.2,B,Cattaraugus,Machias,389,5.5,Lake Erie/Niagara River,yes,yes,yes,134,public carry down,42.42756932,-78.48004154,16,Mesoeutrophic,1997-1999/ 2001-2002/ 2005/ 2011-2014/ 2016-2021,18,153.6,2021,POINT (-78.48004154 42.42756932)
Java Lake,Ont 158..E-23-P152,0104-0004,504,20.7,B,Wyoming,Java,270,2.585,Lake Erie/Niagara River,no,no,no,147,private beach,42.63184537,-78.34372495,16,Eutrophic,1998-1999/ 2007-2021,8.4788,51.129,2021,POINT (-78.34372495 42.63184537)
Cuba Lake,Pa-53-54-11- 5-P115,0201-0016,471,183.9,B,Allegany,Cuba,"6,606",5.2,Allegheny River,yes,yes,yes,23,public ramps,42.2505692,-78.2924183,29,Mesotrophic,1986-1988/ 1990-1991/ 1998-2021,17.1,454.2,2021,POINT (-78.2924183 42.2505692)
Sodus Bay,Ont  84/P96,0302-0020,75,"1,358.50",B,Wayne,Sodus Point,"192,100",3.9,Lake Ontario,no,yes,yes,49,public and private ramps,43.24853087,-76.95807838,17,Mesoeutrophic,1988-1991/ 2001-2005/ 2013-2021,12.8,"3,355.50",2021,POINT (-76.95807838 43.24853087)
Lorton Lake,ONT-53-8-P8,0303-0016,285,18.2,C,Oswego,Albion,"1,000",1.4,Lake Ontario,no,no,no,72,private beach,43.503741,-75.89079,26,Mesotrophic,1990-1994/ 2000-2013/ 2015-2021,4.6,45,2021,POINT (-75.89079 43.503741)
Hyde Lake,Ont  18-P390- 1-P391,0303-0043,117,75.1,B,Jefferson,Theresa,490,3.5,Lake Ontario,yes,yes,yes,156,public cartop launch,44.24320076,-75.83299175,11,Mesoeutrophic,1999-2001/ 2003-2004/ 2008-2012/ 2014,11.48,185.497,2014,POINT (-75.83299175 44.24320076)
Silver Lake,Ont 117- 70-P115,0403-0002,412,328.9,A,Wyoming,Perry,"5,230",7.2,Genesee River,no,yes,yes,25,public ramp,42.69561,-78.03417,24,Eutrophic,1986-1991/ 1995-1997/ 2006-2013/ 2015-2021,23.6,812.4,2021,POINT (-78.03417 42.69561)
Rushford Lake,ONT-117-136-P146,0403-0024,439,231.6,B(T),Allegany,Rushford,"2,797",14.3,Lake Ontario,yes,yes,yes,244,public launch,42.37690837,-78.20054551,5,Mesoligotrophic,2016-2019/ 2021,47,572.3,2021,POINT (-78.20054551 42.37690837)
Lamoka Lake,Pa  3-58-15-P47,0502-0001,335,334.1,A,Schulyer,Tyrone,"7,250",6.6,Chemung River,no,yes,yes,48,public ramp,42.39657963,-77.08490377,6,Eutrophic,1988-1990/ 2013/ 2020-2021,21.6,825.2,2021,POINT (-77.08490377 42.39657963)
Waneta Lake,Pa 3-58-15-P47- 4-P48,0502-0002,334,317.5,A,Schuyler,Tyrone,"2,544",4,Chemung River,yes,yes,yes,265,public launch,42.4445,-77.101799,2,Eutrophic,2020-2021,12,784.5,2021,POINT (-77.101799 42.4445)
Lake Salubria,Pa  3-58-20-P51,0502-0011,331,23.3,B,Steuben,Bath,746,3.1,Chemung River,no,no,no,133,lakefront only,42.32927446,-77.29298404,17,Mesoeutrophic,1997-2001/ 2003-2008/ 2015/ 2017-2021,10,57.6,2021,POINT (-77.29298404 42.32927446)
Smith Pond,Pa  3-58-31- 7-P66,0502-0012,493,18.1,B,Steuben,Howard,143,3.8,Chemung River,no,no,no,190,lakefront only,42.38878839,-77.47447635,16,Eutrophic,2004-2011/ 2013-2021,12.3,44.7,2021,POINT (-77.47447635 42.38878839)
Lake Demons,Pa  3-58-31-10-P68,0502-0015,478,13,B,Steuben,Howard,75,2.5,Chemung River,no,no,no,130,lakefront only,42.34780148,-77.47801979,14,Mesoeutrophic,1996-2001/ 2013-2021,8.2,32.1,2021,POINT (-77.47801979 42.34780148)
Loon Lake,Pa  3-58-38..P79,0502-0039,518,67.3,B,Steuben,Wayland,602,6.1,Chemung River,no,no,no,136,lakefront only,42.49276274,-77.56723663,28,Mesotrophic,1994-2021,20,166.2,2021,POINT (-77.56723663 42.49276274)
Tanglewood Lake,Pa 3-58-11-4-1,0502-xxxx,423,11,B,Steuben,Thurston,437,1,Chemung River,no,no,no,259,no access,42.193635,-77.251116,4,Eutrophic,2018-2021,5,27,2021,POINT (-77.251116 42.193635)
Afton Lake,SR-P180,0601-0010,313,8,B,Chenango,Afton,88,8.2,Susquehanna River,no,no,no,270,private,42.24,-75.51,1,Mesotrophic,2022,27,19,2022,POINT (-75.51 42.24)
Guilford Lake,SR-146- 1-P188,0601-0012,475,28.5,AA,Chenango,Guilford,213,8.9,Susquehanna River,yes,yes,yes,194,public carry down,42.41304892,-75.49939567,15,Mesotrophic,2004-2008/ 2012-2021,29.3,70.4,2021,POINT (-75.49939567 42.41304892)
Chenango Lake,SR-146-19- 6-1-P213,0601-0013,534,49.2,A,Chenango,New Berlin,180,4.3,Susquehanna River,yes,no,no,168,private carry down,42.58252301,-75.44134435,21,Mesotrophic,2000-2010/ 2012-2021,14.2,121.5,2021,POINT (-75.44134435 42.58252301)
Canadarago Lake,SR-204-P392,0601-0016,389,766.6,A(T),Otsego,Richfield Springs,"17,500",10.1,Susquehanna River,yes,yes,yes,57,public ramp,42.81579222,-75.00644893,10,Mesotrophic,1989-1993/ 2017-2021,33.1,"1,893.50",2021,POINT (-75.00644893 42.81579222)
Beaver Lake,SR- 99- 1-P174,0601-0066,446,15.5,C,Broome,Windsor,136,2.3,Susquehanna River,no,no,no,78,lakefront only,42.04553,-75.66561,23,Mesoeutrophic,1991-1994/ 2002-2010/ 2012-2021,7.5,38.3,2021,POINT (-75.66561 42.04553)
Arnold Lake,SR-190-P362,0601-0109,540,25.9,B(T),Otsego,Milford,108,8.5,Susquehanna River,no,no,no,32,lakefront only,42.61106105,-75.00496806,5,Mesoligotrophic,1987-1991/ 1995,27.9,64,1995,POINT (-75.00496806 42.61106105)
Lake Moraine,SR- 44-78-P152,0602-0007,369,101,B,Madison,Hamilton,"2,113",5.5,Susquehanna River,yes,yes,yes,18,public ramp,42.85575841,-75.51734423,36,Mesoeutrophic,1986-2021,18,249.5,2021,POINT (-75.51734423 42.85575841)
Plymouth Reservoir,SR- 44-54- 8-P107,0602-0014,534,31.1,B,Chenango,Plymouth,434,1.3,Susquehanna River,no,no,no,90,lakefront only,42.58810121,-75.6511257,30,Mesotrophic,1991-2010/ 2012-2021,4.3,76.8,2021,POINT (-75.6511257 42.58810121)
Upper Little York Lake,SR- 44-14-60-P67,0602-0017,351,41.4,B,Cortland,Homer,"7,860",9.9,Susquehanna River,yes,yes,yes,224,public ramp,42.70306702,-76.15626802,12,Mesoligotrophic,2009-2013/ 2015-2021,32.4,102.3,2021,POINT (-76.15626802 42.70306702)
Tully Lake,SR-44-14-60-P68,0602-0018,364,93.2,B,Cortland,Tully,69,4.7,Susquehanna River,yes,yes,yes,234,public hand launch,42.77651921,-76.13528477,10,Mesotrophic,2012-2021,15.4,230.2,2021,POINT (-76.13528477 42.77651921)
Song Lake,SR- 44-14-60-P68-P72,0602-0019,363,44,B,Cortland,Tully,255,4,Susquehanna River,yes,no,no,212,lakefront only,42.76854112,-76.14687685,11,Mesotrophic,2009-2012/ 2014-2021,13.3,108.7,2021,POINT (-76.14687685 42.76854112)
Eatonbrook Reservoir,SR- 44-82-P163,0602-0041,436,108.8,B,Madison,West Eaton,"1,804",6.2,Susquehanna River,yes,yes,yes,39,public ramp,42.86051,-75.6991,24,Mesoligotrophic,1988-2000/ 2010-2013/ 2015-2021,20.3,268.7,2021,POINT (-75.6991 42.86051)
Melody Lake,SR- 44-14-27-23-P39,0602-0053,427,15.5,C,Cortland,Willet,500,2.1,Susquehanna River,no,no,no,31,lakefront only,42.470198,-75.874422,31,Mesoeutrophic,1987-1991/ 1994/ 1997-2021,6.9,38.3,2021,POINT (-75.874422 42.470198)
DeRuyter Reservoir,SR- 44-14-59-34-P56,0602-0086,390,225.3,B,Madison,DeRuyter,"1,011",7.2,Seneca/Oneida/Oswego Rivers,yes,no,no,40,private ramp,42.81419,-75.89256,33,Mesotrophic,1988-2010/ 2012-2021,23.6,556.5,2021,POINT (-75.89256 42.81419)
Crooked Lake,SR- 44-14-60-P68-P73,0602-0090,364,46.6,B,Onondaga,Tully,903,4.9,Susquehanna River,yes,no,no,17,private ramp,42.78741,-76.14978,23,Mesotrophic,1986-1990/ 1993-1998/ 2009-2013/ 2015-2021,16.1,115.1,2021,POINT (-76.14978 42.78741)
Petonia Lake,SR- 44-23- 3-P78,0602-0092,291,10.4,A,Chenango,Greene,179,4.5,Susquehanna River,yes,no,no,20,lakefront only,42.33173,-75.79847,26,Mesoligotrophic,1986-1990/ 2001-2021,14.8,25.7,2021,POINT (-75.79847 42.33173)
Echo Lake,SR- 44-23-11-P81,0602-0093,404,25.9,C,Chenango,Smithville,273,4.8,Susquehanna River,no,no,no,81,lakefront only,42.38553,-75.85068,19,Mesoligotrophic,1991-1995/ 2002-2010/ 2012-2015/ 2021,15.7,64,2021,POINT (-75.85068 42.38553)
Geneganslet Lake,SR- 44-23-35-P88,0602-0096,454,41.4,B,Chenango,McDonough,"1,305",8.5,Susquehanna River,no,no,no,69,lakefront only,42.51645,-75.77491,29,Mesoligotrophic,1990-2010/ 2012-2016/ 2018-2021,27.9,102.3,2021,POINT (-75.77491 42.51645)
Craine Lake,SR- 44-76-P146,0602-0108,332,10.4,C,Madison,Hamilton,50,3.7,Susquehanna River,yes,no,no,37,private beach,42.76052,-75.55785,24,Mesotrophic,1988-1994/ 1996-1998/ 2000-2001/ 2009-2013/ 2015-2021,12.1,25.7,2021,POINT (-75.55785 42.76052)
Lebanon Reservoir,SR- 44-79-P153,0602-0109,399,36.3,B(T),Madison,Lebanon,"1,289",6.4,Susquehanna River,yes,yes,yes,38,public ramp,42.8033211,-75.6067665,24,Mesoeutrophic,1988-1994/ 1997-2001/ 2004-2005/ 2011-2013/ 2015-2021,21,89.7,2021,POINT (-75.6067665 42.8033211)
Bradley Brook Reservoir,SR- 44-80-P154,0602-0111,436,57,B,Madison,West Eaton,663,4.2,Susquehanna River,yes,no,no,46,lakefront only,42.83427692,-75.66129414,24,Mesotrophic,1988-2001/ 2011-2014/ 2016-2021,13.8,140.8,2021,POINT (-75.66129414 42.83427692)
Hatch Lake,SR- 44-80-P154-1-P155,0602-0112,448,54.4,B,Madison,West Eaton,354,6.6,Susquehanna River,yes,no,no,36,lakefront only,42.83468044,-75.67786932,23,Mesotrophic,1988-1996/ 1998-2001/ 2004/ 2011-2015/ 2017-2021,21.6,134.4,2021,POINT (-75.67786932 42.83468044)
Warn Lake,SR- 44-P94,0602-0116,285,13,C,Chenango,Oxford,269,3.7,Susquehanna River,no,no,no,95,lakefront only,42.37451,-75.6464,26,Mesotrophic,1991-1996/ 2001-2010/ 2012-2021,12.1,32.1,2021,POINT (-75.6464 42.37451)
Otter Lake,Ont  66-12-35-P197- 3-P198,0701-0004,462,114,A,Oneida,Forestport,598,1.4,Black River,no,no,no,99,lakefront only,43.59177578,-75.11808986,22,Mesotrophic,1992-1996/ 2002-2009/ 2011/ 2013/ 2015-2021,4.6,281.6,2021,POINT (-75.11808986 43.59177578)
Otisco,ONT-66-12-12-P154-6-P175,0702-0011,239,894,AA,Onondaga,Spafford,"10,981",10.2,Oswego River,yes,yes,yes,256,public launch,42.8745,-76.29633,6,Mesotrophic,2017-2022,33.5,"2,210",2022,POINT (-76.29633 42.8745)
Jamesville Reservoir,ONT-66-11-P26-37-6-P144,0703-0015,195,90.528178,AA,Onondaga,Jamesville,"11,292.35",4.297,Lake Ontario,yes,yes,yes,245,public launch,42.97363139,-76.06901886,6,Mesotrophic,2016-2021,14.09416,223.7,2021,POINT (-76.06901886 42.97363139)
Cazenovia Lake,Ont  66-11-P26-37-35-P153,0703-0021,363,479.2,A,Madison,Cazenovia,"2,230",7.1,Seneca/Oneida/Oswego Rivers,yes,yes,yes,41,public carry down,42.94983172,-75.87397824,30,Mesoligotrophic,1988-2002/ 2004-2008/ 2011-2014/ 2016-2021,23.3,"1,183.60",2021,POINT (-75.87397824 42.94983172)
Tuscarora Lake,Ont  66-11-P26-37-47-P164,0703-0022,460,124.3,B,Madison,Erieville,"1,340",4.3,Seneca/Oneida/Oswego Rivers,yes,no,no,21,lakefront only,42.86651821,-75.75589184,35,Mesotrophic,1986-2013/ 2015-2021,14.1,307,2021,POINT (-75.75589184 42.86651821)
Pleasant Lake,Ont  66-11-14a-P19,0703-0047,123,15.5,B,Oswego,Schroeppel,51,1.4,Seneca/Oneida/Oswego Rivers,no,no,no,89,lakefront only,43.23616,-76.22482,22,Eutrophic,1991-1995/ 1998/ 2001-2002/ 2007-2012/ 2014-2021,4.6,38.3,2021,POINT (-76.22482 43.23616)
Panther Lake,Ont  66-11-P26-24-22-15-P94,0703-0082,183,49.2,B,Oswego,Constantia,398,2.6,Seneca/Oneida/Oswego Rivers,yes,no,no,103,private ramp,43.32937976,-75.9087266,12,Mesotrophic,1993-1997/ 2014-2021,8.4,121.5,2021,POINT (-75.9087266 43.32937976)
Kasoag Lake,Ont  66-11-P26-24-P109,0703-0087,189,23.3,B,Oswego,Williamstown,"2,269",2.1,Seneca/Oneida/Oswego Rivers,no,yes,yes,83,public hand launch,43.4727955,-75.92304134,24,Mesotrophic,1991-1995/ 2001-2010/ 2012-2015/ 2017-2021,6.888,57.551,2021,POINT (-75.92304134 43.4727955)
Duck Lake,Ont  66-12-46-P222,0704-0025,121,80.3,C,Cayuga,Conquest,231,2.3,Seneca/Oneida/Oswego Rivers,yes,no,no,44,private ramp,43.14787364,-76.68958076,21,Eutrophic,1988/ 1990-1992/ 1994-1995/ 1998/ 2004-2010/ 2015-2021,7.5,198.3,2021,POINT (-76.68958076 43.14787364)
Lake Como,Ont  66-12-P296- 74-P333,0705-0029,399,25.9,B,Cayuga,Summerhill,410,2.9,Seneca/Oneida/Oswego Rivers,yes,no,no,45,private ramp,42.67738347,-76.30235766,31,Mesoeutrophic,1988-1994/ 1997-2013/ 2015-2021,9.5,64,2021,POINT (-76.30235766 42.67738347)
Owasco Lake,ONT-66-12-43-P212,0706-0009,216,"2,745",AA(T),Cayuga,Fleming,"52,480",29.1,Oswego River,yes,yes,yes,61.1,public launch,42.83135,-76.50767,12,Mesoligotrophic,1989-1994/2017-2022,95.5,"6,784",2022,POINT (-76.50767 42.83135)
Brantingham Lake,Ont  19- 70- 4-P689,0801-0176,377,132.2,A,Lewis,Greig,658,8.6,Black River,yes,no,no,175,lakefront only,43.69491587,-75.27408883,19,Mesoligotrophic,2001-2010/ 2012-2014/ 2016-2021,28.2,326.5,2021,POINT (-75.27408883 43.69491587)
Chase Lake,Ont  19- 57- 4-P597,0801-0321,379,54.4,A,Lewis,Watson,"1,508",5.1,Black River,no,no,no,64,lakefront only,43.75856,-75.30563,7,Mesotrophic,1990-1995/ 1997,16.7,134.4,1997,POINT (-75.30563 43.75856)
Fulton Second Lake,Ont  19- 81-18-P782a thru P782d,0801-0373,520,106.2,A,Herkimer,Old Forge,"11,270",15.6,Black River,yes,yes,yes,13,public hand launch/ramp,43.72121,-74.91151,27,Mesoligotrophic,1986-1990/ 1995-2012/ 2018-2021,51.2,262.3,2021,POINT (-74.91151 43.72121)
Deer River Flow,SL(C)-32- 6-P73,0902-0102,444,148,C(T),Franklin,Duane,"7,166",1.1,St. Lawrence River,no,yes,yes,170.1,public hand launch,44.6533,-74.3061,10,Mesoeutrophic,2000-2003/ 2006/ 2014/ 2018-2021,3.6,365,2021,POINT (-74.3061 44.6533)
Eagle Pond,SL(C)-32- 6-P73-26-P78/ P83,0902-0104,445,15.5,C,Franklin,Duane,132,0.4,St. Lawrence River,no,no,no,215,lakefront only,44.66915534,-74.27428203,12,Mesoligooeutrophic,2009-2013/ 2015-2021,1.3,38.3,2021,POINT (-74.27428203 44.66915534)
Sagamore Lake,SL- 1-P109..P293- 6-P313,0903-0209,200,46.6,B,Putnam,Kent,"1,708",2.3,Lower Hudson River,no,no,no,114,lakefront only,41.47278581,-73.78145824,6,Mesotrophic,1994-1997/ 2020-2021,7.5,115.1,2021,POINT (-73.78145824 41.47278581)
Silver Lake,SL- 2-59-31-P351,0904-0059,452,49.2,C(T),St. Lawrence,Clifton,145,3.7,St. Lawrence River,no,no,no,117,lakefront only,44.22697,-74.8264,24,Mesotrophic,1996-2000/ 2002-2010/ 2012-2021,12.1,121.5,2021,POINT (-74.8264 44.22697)
Moon Lake,SL-25- 50-P71,0905-0093,119,88.1,C,Jefferson,Theresa,370,3.7,St. Lawrence River,yes,yes,yes,98,public cartop launch,44.2524702,-75.73780869,5,Eutrophic,1992-1996,12.1,217.6,1996,POINT (-75.73780869 44.2524702)
Jenny Lake,SL-25- 73-19-P138,0905-0149,377,33.7,B,Saratoga,Corinth,780,5.5,Upper Hudson River,no,no,no,108,private beach,43.26620183,-73.91267283,22,Mesoligotrophic,1994-1998/ 2001-2007/ 2011-2014/ 2016-2021,18.04,83.239,2021,POINT (-73.91267283 43.26620183)
Black Lake,SL-25-7-P1,0906-0001,85,"3,380",B,St Lawrence,Morristown,"144,400",2.5,St. Lawrence River,yes,yes,yes,51,public launch,44.50507,-75.58288,34,Etrophic,1988-2019/2021/2022,8.2,"8,352",2022,POINT (-75.58288 44.50507)
Lake Bonaparte,SL-25-  7/P1- 3-55-P24,0906-0016,234,520.6,B,Lewis,Harrisville,"4,770",9.4,St. Lawrence River,yes,yes,yes,50,public ramp,44.14926394,-75.39267283,25,Mesoligotrophic,1988-1992/ 1995/ 1998-2001/ 2007-2021,30.8,"1,285.90",2021,POINT (-75.39267283 44.14926394)
Butterfield Lake,SL-25-  7/P1- 8- P54,0906-0020,85,406.6,B,Jefferson,Redwood,"1,720",4.4,St. Lawrence River,yes,yes,yes,12,public ramp,44.31828057,-75.77491942,35,Mesoeutrophic,1986-2010/ 2012-2021,14.4,"1,004.30",2021,POINT (-75.77491942 44.31828057)
Lake of the Woods,SL-25-  7/P1- 3-17-P 9,0906-0038,100,67.3,C,Jefferson,Alexandria,270,13,St. Lawrence River,yes,yes,yes,160,public cartop launch,44.31551181,-75.72710782,16,Oligotrophic,1994-1995/ 1999-2005/ 2008/ 2015-2019/ 2021,42.6,166.2,2021,POINT (-75.72710782 44.31551181)
Grass Lake,SL-25-  7/P1- 5-P51,0906-0060,98,129.5,C,St. Lawrence,Rossie,955,7.2,St. Lawrence River,no,yes,yes,196,public carry down,44.3344264,-75.7149427,16,Mesotrophic,2004-2011/ 2013-2019/ 2021,23.7,319.9,2021,POINT (-75.7149427 44.3344264)
Millsite Lake,SL-25-  7/P1- 8- P54..P55,0906-0064,91,204.6,B,Jefferson,Theresa,420,12.8,St. Lawrence River,yes,yes,yes,137,public ramp,44.29094033,-75.77577538,25,Mesoligotrophic,1997-2021,42,505.4,2021,POINT (-75.77577538 44.29094033)
Augur Lake,C- 25- 8-P213,1004-0050,168,152.8,A,Essex,Chesterfield,"1,134",3,Lake Champlain,yes,no,no,120,lakefront only,44.45995813,-73.50007675,23,Mesotrophic,1997-2001/ 2003-2013/ 2015-2021,9.9,377.4,2021,POINT (-73.50007675 44.45995813)
Mirror Lake,C- 25-26-35-3-P250,1004-0067,566,49.4,B(T),Essex,Lake Placid,400,4.2,Lake Champlain,yes,yes,yes,149,public hand launch,44.29043,-73.98011,22,Oligotrophic,1998-2001/ 2003-2011/ 2013-2021,13.8,122,2021,POINT (-73.98011 44.29043)
Lake Placid,C- 25-26-35-5-P254,1004-0068,566,"1,134.40",AAspec,Essex,North Elba,"5,140",8.8,Lake Champlain,yes,yes,yes,88,public ramp,44.32225577,-73.97380522,31,Oligotrophic,1991-2021,28.9,"2,802",2021,POINT (-73.97380522 44.32225577)
Lincoln Pond,C- 48-26-P315,1004-0090,314,291.7,B(T),Essex,Elizabethtown,"4,000",3,Lake Champlain,no,yes,yes,135,public carry down,44.1431,-73.57318,19,Mesoligotrophic,1997-2001/ 2004/ 2008-2016/ 2018-2021,9.8,720.5,2021,POINT (-73.57318 44.1431)
Glen Lake,C-134- 4-19-19-P441,1005-0009,121,129.5,B(T),Warren,Glens Falls,"2,970",5.6,Lake Champlain,no,yes,yes,8,public carry down,43.36445,-73.67313,32,Mesoligotrophic,1986-1990/ 1993-1995/ 1997-2021,18.4,319.9,2021,POINT (-73.67313 43.36445)
Hadlock Pond,C-134- 4-19- 8-P432,1005-0040,138,111.4,AA(T),Washington,Fort Ann,"2,269",5,Lake Champlain,no,yes,yes,126,public beach,43.4237,-73.57257,15,Mesoligotrophic,1997-2001/ 2011-2015/ 2017-2021,16.4,275.2,2021,POINT (-73.57257 43.4237)
Lake Sunnyside,C-134- 4-19-19-P440,1005-0047,107,10.4,B,Warren,Queensbury,63,4.6,Lake Champlain,no,no,no,166,lakefront only,43.37534871,-73.63978734,15,Mesoligotrophic,1999-2003/ 2011-2015/ 2017-2021,15,25.7,2021,POINT (-73.63978734 43.37534871)
Lake George,C-101-P367,1006-0016,96,"11,401",AA-S,Warren,Hague,"60,372",14.5,Lake Champlain,yes,yes,yes,199,public launch,43.5585,-73.62831,17,Oligotrophic,2001/2004-2014/2017-2022,47.6,"28,173",2022,POINT (-73.62831 43.5585)
Saratoga Lake,H-299-P27,1101-0012,62,"1,631.70",A,Saratoga,Saratoga Springs,"63,200",7.7,Upper Hudson River,no,yes,yes,104,public ramp,43.01643039,-73.74076128,20,Mesoeutrophic,1993-1997/ 2005-2011/ 2013/ 2015-2021,25.3,"4,030.30",2021,POINT (-73.74076128 43.01643039)
Round Lake,H-260-P1089,1101-0060,47,130,B,Saratoga,Malta,"7,019",2.1,Upper Hudson River,yes,yes,yes,268,pubic ramp,42.93,-73.78,1,Mesoeutrophic,2022,7,321,2022,POINT (-73.78 42.93)
Babcock Lake,H-264- 4-P1095-3-6-P1109,1102-0014,404,18.1,A,Rensselaer,Grafton,120,4.6,Upper Hudson River,no,no,no,29,private beach,42.81738617,-73.39949441,34,Mesoligotrophic,1987-1995/ 1997-2021,15.1,44.7,2021,POINT (-73.39949441 42.81738617)
Taconic Pond,H-264-38-12-P1129,1102-0029,499,13,C(T),Rensselaer,Grafton,115,4.7,Upper Hudson River,no,no,no,181,lakefront only,42.7353162,-73.4126407,15,Mesoligotrophic,2002-2003/ 2006-2007/ 2009-2011/ 2013-2021,15.4,32.1,2021,POINT (-73.4126407 42.7353162)
Cossayuna Lake,H-301-17-P79,1103-0002,147,266.8,A,Washington,Argyle,"3,060",3.7,Upper Hudson River,no,yes,yes,96,public ramp,43.20579516,-73.42319407,27,Eutrophic,1992-1996/ 1998-1999/ 2001-2010/ 2012-2021,12.1,659,2021,POINT (-73.42319407 43.20579516)
Brant Lake,H-391-31-P347,1104-0037,243,556.9,AAspec,Warren,Brant Lake,"10,300",9.1,Upper Hudson River,no,yes,yes,28,public ramp,43.71327946,-73.7052721,12,Mesoligotrophic,1987-1991/ 1999-2003/ 2019-2021,29.8,"1,375.50",2021,POINT (-73.7052721 43.71327946)
Lake Pleasant,H-369-P313,1104-0051,526,583,AA,Hamilton,Lake Pleasant,"3,201",8.8,Upper Hudson River,yes,yes,yes,240,public hand launch,43.47756539,-74.37739339,5,Oligotrophic,2014-2016/ 2020-2021,28.9,"1,439.50",2021,POINT (-74.37739339 43.47756539)
Lake Luzerne,H-370-P318,1104-0075,190,38.9,B,Warren,Lake Luzerne,"5,710",7.3,Upper Hudson River,no,yes,yes,158,public cartop launch,43.32281251,-73.83249514,7,Mesoligotrophic,1999-2004/ 2021,23.9,96.1,2021,POINT (-73.83249514 43.32281251)
Hunt Lake,H-369-P127- 2..P129/ P130/ P131,1104-0105,378,54.4,B,Saratoga,Corinth,560,3.76,Upper Hudson River,no,no,no,107,lakefront only,43.25996122,-73.90574468,24,Mesoligotrophic,1994-1998/ 2002-2013/ 2015-2021,12.3328,134.368,2021,POINT (-73.90574468 43.25996122)
Lake Forest,H-370-P328,1104-0184,217,18.1,B,Warren,Lake Luzerne,308,1.6,Upper Hudson River,no,no,no,177,lakefront only,43.367216,-73.790681,18,Mesotrophic,2001-2010/ 2012-2013/ 2015/ 2017-2021,5.1,44.7,2021,POINT (-73.790681 43.367216)
Friends Lake,H-391-33-8-P365,1104-0205,278,183.9,AAspec,Warren,Chester,"1,440",4.2,Upper Hudson River,no,no,no,82,lakefront only,43.62589795,-73.84461464,24,Mesotrophic,1991-1995/ 2001-2010/ 2012-2014/ 2016-2021,13.8,454.2,2021,POINT (-73.84461464 43.62589795)
Eagle Lake,H-391..39-P432..P438,1104-0235,288,170.9,B,Essex,Ticonderoga,997,5.4,Upper Hudson River,yes,yes,yes,169,public ramp,43.88033123,-73.58626545,22,Oligotrophic,2000-2021,17.7,422.1,2021,POINT (-73.58626545 43.88033123)
Peck Lake,H-240-127-25-P686,1201-0016,424,554.3,C,Fulton,Bleeker,"4,960",5.8,Mohawk River,no,no,no,100,private ramp,43.11461031,-74.41234212,18,Mesoligotrophic,1992-1997/ 2009-2012/ 2014-2021,19,"1,369.10",2021,POINT (-74.41234212 43.11461031)
East Caroga Lake,H-240-127-P697,1201-0046,442,139.9,B,Fulton,Caroga,300,3.9,Mohawk River,yes,yes,yes,67,public ramp,43.12772642,-74.4840928,27,Mesoligotrophic,1990-1995/ 2000-2010/ 2012-2021,12.8,345.6,2021,POINT (-74.4840928 43.12772642)
Galway Lake,H-240- 69-P563,1201-0110,259,209.8,B,Saratoga,Galway,"2,392",2.6,Mohawk River,no,no,no,68,lakefront only,43.03063211,-74.07539778,29,Mesotrophic,1990-1997/ 2000-2010/ 2012-2021,8.5,518.2,2021,POINT (-74.07539778 43.03063211)
Mariaville Lake,H-240- 70-P570,1201-0113,388,80.3,B,Schenectady,Duanesburg,730,1.7,Mohawk River,no,no,no,163,lakefront only,42.82845637,-74.12632175,18,Eutrophic,1999-2011/ 2014-2018,5.6,198.3,2018,POINT (-74.12632175 42.82845637)
West Caroga Lake,H-240-127-P698,1201-0144,444,126.9,B,Fulton,Caroga,"1,440",10.4,Mohawk River,yes,no,no,145,lakefront only,43.1366985,-74.49605528,7,Mesoligotrophic,1997-2001/ 2019-2021,34.1,313.4,2021,POINT (-74.49605528 43.1366985)
Canada Lake,H-240-144 (portion 1a)/P703a,1201-0150,473,51.8,B,Fulton,Caroga,"10,857",21.3,Mohawk River,yes,yes,yes,176,public ramp,43.16706344,-74.51833942,20,Mesoligotrophic,2001-2010/ 2012-2021,69.9,127.9,2021,POINT (-74.51833942 43.16706344)
Pleasant Lake,H-240-144-21- 7-P745,1201-0175,498,98.4,B,Fulton,Stratford,340,6.7,Mohawk River,yes,no,no,174,lakefront only,43.18847245,-74.59985736,20,Mesoligotrophic,2000-2001/ 2003-2011/ 2013-2021,22,243,2021,POINT (-74.59985736 43.18847245)
Orange Lake,H- 94- 6-P340,1301-0008,149,165.8,B,Orange,Newburgh,"2,703",2.5,Lower Hudson River,no,no,no,109,lakefront only,41.54873895,-74.1035787,17,Eutrophic,1994-1998/ 2002/ 2005/ 2011-2014/ 2016-2021,8.2,409.5,2021,POINT (-74.1035787 41.54873895)
Burden Lake,H-235-P386,1301-0025,191,148,B,Rensselaer,Sand Lake,"1,130",3,Lower Hudson River,yes,no,no,122,lakefront only,42.60194324,-73.56202837,20,Mesotrophic,1997-1999/ 2003-2011/ 2013-2021,9.8,365.6,2021,POINT (-73.56202837 42.60194324)
Lake Tibet,H- 55-P183e,1301-0034,249,15.5,B,Putnam,Kent,176,0.9,Lower Hudson River,no,no,no,93,lakefront only,41.45236306,-73.77956325,5,Eutrophic,1991-1993/ 2020-2021,3,38.3,2021,POINT (-73.77956325 41.45236306)
Roaring Brook Lake,H- 55-18-P183a,1301-0037,236,46.6,B,Putnam,Putnam Valley,466,2,Lower Hudson River,no,no,no,225,private beach,41.43920316,-73.80795447,11,Mesotrophic,2009-2013/ 2015-2021,6.6,115.1,2021,POINT (-73.80795447 41.43920316)
Sleepy Hollow Lake,H-202-P8f,1301-0059,21,131.9,A,Greene,Athens,"3,650",8.9,Lower Hudson River,no,no,no,223,private beach launch,42.29506437,-73.80724768,11,Eutrophic,2009-2013/ 2015-2021,29.3,325.8,2021,POINT (-73.80724768 42.29506437)
Barger Pond,H- 55-12-P181,1301-0091,196,12,B,Putnam,Putnam Valley,434,1.8,Lower Hudson River,no,no,no,257,private beach (2),41.359501,-73.812698,5,Eutrophic,2003/ 2018-2021,6,30,2021,POINT (-73.812698 41.359501)
Tomkins Lake,H- 43- 4-P150i,1301-0126,123,5.2,B,Rockland,Stony Point,36,1.6,Lower Hudson River,no,no,no,179,lakefront only,41.27156789,-73.99047229,3,Mesotrophic,2001/ 2020-2021,5.2,12.8,2021,POINT (-73.99047229 41.27156789)
Indian Lake,H- 55- 2- 4-P167,1301-0143,150,20.7,A,Putnam,Putnam Valley,88.8,9.2,Lower Hudson River,no,no,no,113,lakefront only,41.3731,-73.8877,24,Mesotrophic,1994-1996/ 1998-2001/ 2003-2011/ 2013-2021,30.176,51.129,2021,POINT (-73.8877 41.3731)
Lake Peekskill,H- 55- 7-P171,1301-0147,89,23.3,B,Putnam,Putnam Valley,286,3.7,Lower Hudson River,yes,no,no,73,lakefront only,41.3400698,-73.88260749,28,Mesoeutrophic,1990-1994/ 1996/ 1998/ 2000-2010/ 2012-2021,12.1,57.6,2021,POINT (-73.88260749 41.3400698)
Mohegan Lake,H- 55-11-P179,1301-0149,136,41.4,B,Westchester,Yorktown,262,2.4,Lower Hudson River,no,no,no,150,private beaches,41.3145921,-73.85052911,23,Eutrophic,1998-2013/ 2015-2021,7.9,102.3,2021,POINT (-73.85052911 41.3145921)
Sepasco Lake,H-158-13- 3-P826,1301-0214,95,10.4,B,Dutchess,Red Hook,149,4.2,Lower Hudson River,no,no,no,138,lakefront only,41.95946814,-73.83853195,23,Mesotrophic,1997-2001/ 2003-2011/ 2013-2021,13.9,25.7,2021,POINT (-73.83853195 41.95946814)
Forest Lake,H-236-22-11-P441,1301-0267,475,7.8,A,Rensselaer,Grafton,85,2.2,Lower Hudson River,no,no,no,183,lakefront only,42.7319753,-73.46103404,15,Mesoligotrophic,2003-2006/ 2009-2011/ 2013-2021,7.2,19.3,2021,POINT (-73.46103404 42.7319753)
Big Bowman Lake,H-236-24-PN444,1301-0270,430,13,B,Rensselaer,Sand Lake,235,4.5,Lower Hudson River,no,no,no,235,private lakefront only,42.64871364,-73.4881489,8,Mesotrophic,2013-2021,14.8,32.1,2021,POINT (-73.4881489 42.64871364)
Buckingham Lake,H-221-P 302/  P 303,1301-xxxx,61,2.4,C,Albany,Albany,64,0.9,Lower Hudson River,no,no,no,231,lakefront only,42.66355226,-73.80713591,8,Eutrophic,2011-2014/ 2018-2021,3,5.9,2021,POINT (-73.80713591 42.66355226)
Peach Lake,H- 31-P44-24- P89-10-P93,1302-0004,162,101,B,Putnam,Southeast,444,3.7,Lower Hudson River,no,no,no,164,lakefront only,41.36288373,-73.5798748,20,Mesoeutrophic,1999-2009/ 2011/ 2013-2021,12.1,249.5,2021,POINT (-73.5798748 41.36288373)
Lake Carmel,H- 31-P44-23-P59- 6-P62..P62a,1302-0006,189,77.7,B,Putnam,Carmel,"3,405",2.4,Lower Hudson River,yes,no,no,2,lakefront only,41.45819409,-73.66492893,11,Eutrophic,1986-1990/ 2016-2021,7.9,191.9,2021,POINT (-73.66492893 41.45819409)
Timber Lake,H- 31-P44-23-P59- 6-P62..P62a,1302-0006,80,2.9,B,Westchester,Lewisboro,85,1.5,Lower Hudson River,no,no,no,203,lakefront only,41.29387045,-73.66304989,11,Eutrophic,2006/ 2009-2011/ 2014-2019/ 2021,4.9,7.2,2021,POINT (-73.66304989 41.29387045)
Kirk Lake,H- 31-P44-14- 7-P52,1302-0080,179,49.2,B,Putnam,Carmel,"1,053",3.1,Lower Hudson River,no,no,no,230,private beach,41.38732075,-73.75234857,10,Eutrophic,2011-2014/ 2016-2021,10,121.5,2021,POINT (-73.75234857 41.38732075)
Lake Lincolndale,H- 31-P44-17- 5-P57a,1302-0089,145,7.8,B,Westchester,Somers,131,2,Lower Hudson River,no,no,no,102,private beach,41.34137587,-73.72560393,25,Eutrophic,1993-2005/ 2007-2009/ 2013-2021,6.5,19.3,2021,POINT (-73.72560393 41.34137587)
Palmer Lake,H- 31-P44-23-P59- 5-P61a,1302-0103,454,4,C,Putnam,Carmel,197,1.2,Lower Hudson River,no,yes,yes,246,private beach,41.438717,-73.673344,6,Eutrophic,2016-2021,4,9.2,2021,POINT (-73.673344 41.438717)
Barrett Pond,H-31-P 44-23-P 67-5-P 71,1302-0115,237,28.5,B,Putnam,Kent,166,4.9,Lower Hudson River,no,no,no,229,lakefront only,41.43394508,-73.74063288,10,Eutrophic,2011-2015/ 2017-2021,16.1,70.4,2021,POINT (-73.74063288 41.43394508)
China Pond,H-31-P 44-23-3-P 75,1302-0118,234,18.1,B,Putnam,Kent,121,7.1,Lower Hudson River,no,no,no,226,lakefront only,41.44174532,-73.74349638,10,Eutrophic,2011-2014/ 2016-2021,23.1,44.7,2021,POINT (-73.74349638 41.44174532)
Seven Hills Lake,H- 31-P44-23..P76..P77c,1302-0121,194,19,B,Putnam,Kent,"1,513",1.8,Lower Hudson River,no,no,no,260,no access,41.4841003,-73.7491989,3,Mesoeutrophic,2019-2021,5.9,47,2021,POINT (-73.7491989 41.4841003)
Lake Waccabuc,H- 31-P44-35-P109- 6-P117,1302-0140,144,51.8,A,Westchester,South Salem,890,7.3,Lower Hudson River,no,no,no,4,lakefront only,41.29792356,-73.58427479,27,Mesoeutrophic,1986-1991/ 1993-1995/ 2000/ 2002/ 2006-2021,23.9,127.9,2021,POINT (-73.58427479 41.29792356)
Lake Rippowam,H- 31-P44-35-P109- 6..P118/ P119,1302-0141,144,13,B,Westchester,South Salem,410,2.7,Lower Hudson River,no,no,no,204,lakefront only,41.29997874,-73.56060449,14,Mesoeutrophic,2006-2011/ 2013-2021,8.8,32.1,2021,POINT (-73.56060449 41.29997874)
Lake Oscaleta,H- 31-P44-35-P109- 6..P118/ P119,1302-0141,144,23.3,B,Westchester,South Salem,645,6.8,Lower Hudson River,no,no,no,205,lakefront only,41.29654714,-73.56154283,14,Mesoeutrophic,2006-2011/ 2013-2021,22.3,57.6,2021,POINT (-73.56154283 41.29654714)
Bedford Lake,H-31-P44-43-P127,1302-0147,138,10.4,B,Westchester,Bedford,281,1.3,Lower Hudson River,no,no,no,232,private lakefront only,41.19496474,-73.7037672,10,Eutrophic,2012-2021,4.3,25.7,2021,POINT (-73.7037672 41.19496474)
Beaver Dam Lake,H- 89-12-P234,1303-0021,101,164,B,Orange,Blooming Grove,66,3.5,Lower Hudson River,no,no,no,216,lakefront only,41.44295286,-74.11541711,10,Eutrophic,2009-2012/ 2014-2018/ 2021,11.6,405.1,2021,POINT (-74.11541711 41.44295286)
Stissing Lake,H-101-P408/P409/P410,1305-0010,138,28.5,B,Dutchess,Pine Plains,555,3.5,Lower Hudson River,yes,yes,yes,213,public ramp,41.97146662,-73.67365617,10,Mesoeutrophic,2009-2012/ 2014/ 2017-2021,11.6,70.4,2021,POINT (-73.67365617 41.97146662)
Ulster Heights Lake,H-139-14-38- 3-P797a,1306-0120,302,82.9,B,Ulster,Wawarsing,"2,380",1.7,Lower Hudson River,no,no,no,211,lakefront only,41.77531222,-74.4916879,11,Mesoeutrophic,2009-2012/ 2014-2019/ 2021,5.5,204.8,2021,POINT (-74.4916879 41.77531222)
Wallkill Pond,H-P464B,1306-xxxx,90,3,B,Ulster,Shawangunk,57,1.8,Lower Hudson River,no,no,no,251,no access,41.651156,-74.219314,5,Eutrophic,2017-2021,5.9,8,2021,POINT (-74.219314 41.651156)
Robinson Pond,H-188-P902,1308-0003,162,46.6,B(T),Columbia,Copake,906,4,Lower Hudson River,no,yes,yes,59,public beach,42.11876,-73.55578,19,Eutrophic,1989-1993/ 2007-2012/ 2014-2021,13.1,115.1,2021,POINT (-73.55578 42.11876)
Upper Rhoda Pond,H-188-55-P889,1308-0018,165,29.5,B,Columbia,Copake,306,1.2,Lower Hudson River,no,no,no,266,private lakefront only,42.0946999,-73.5892029,1,Mesotrophic,2021,3.9,72.8,2021,POINT (-73.5892029 42.0946999)
Lower Rhoda Lake,H-188-55-P888,1308-0018,153,21,B,Columbia,Copake,714,9,Lower Hudson River,no,no,no,250,no access,42.07931753,-73.5941095,5,Mesotrophic,2017-2021,29.5,58,2021,POINT (-73.5941095 42.07931753)
Long Pond,H-188-55-P 887,1308-0018,153,5,B,Columbia,Ancram,797,4,Lower Hudson River,no,no,no,249,no access,42.068622,-73.591409,5,Mesotrophic,2017-2021,13.1,13,2021,POINT (-73.591409 42.068622)
Queechy Lake,H-204- 2-10-P57,1310-0033,311,51.8,B(T),Columbia,Canaan,220,5.6,Lower Hudson River,yes,yes,yes,52,public carry down,42.4069689,-73.41588633,31,Mesoligotrophic,1988-1992/ 1995/ 1997-2021,18.4,127.9,2021,POINT (-73.41588633 42.4069689)
Round Pond,H-204- 2-36- 4- 1-P80,1310-0044,529,5.2,A,Rensselaer,Berlin,57,2.2,Lower Hudson River,no,no,no,91,private beach,42.6446,-73.43552,25,Mesotrophic,1991-1995/ 2001-2011/ 2013-2015/ 2017-2021,7.2,12.8,2021,POINT (-73.43552 42.6446)
Spring Lake,H-204- 2-36- 4-P81,1310-0045,539,10.4,B,Rensselaer,Sand Lake,40,4,Lower Hudson River,no,no,no,154,lakefront only,42.65355231,-73.42028036,17,Mesoligotrophic,1998-2001/ 2007-2011/ 2014-2021,13.1,25.7,2021,POINT (-73.42028036 42.65355231)
Duane Lake,H-221- 4-P270- 1- 9-P276a,1311-0006,409,13,B,Schenectady,Duanesburg,131,2.3,Lower Hudson River,no,no,no,66,lakefront only,42.74946103,-74.11232009,32,Eutrophic,1990-2021,7.5,32.1,2021,POINT (-74.11232009 42.74946103)
Mountain Lake,D-10-18-P114,1401-0058,366,23.7,B,Sullivan,Smallwood,"2,253",2,Delaware River,no,no,no,267,private lakefront only,41.657101,-74.814796,1,Eutrophic,2021,6.6,58.6,2021,POINT (-74.814796 41.657101)
Lochada Lake,D-16-5-P170,1401-0079,375,37,B,Sullivan,Lumberland,184,9.7,Delaware River,no,no,no,273,private,41.49,-74.86,1,Mesoeutrophic,2022,31.8,92,2022,POINT (-74.86 41.49)
Montgomery Lake,D-30-2-P186,1401-0091,351,7.8,B,Sullivan,Highland,69,4.7,Delaware River,no,no,no,236,private lakefront only,41.52539582,-74.91719097,8,Mesoeutrophic,2014-2021,15.4,19.3,2021,POINT (-74.91719097 41.52539582)
York Lake,D-34-P203,1401-0099,340,42,B,Sullivan,Highland,132,,Delaware River,no,no,no,272,private,41.5,-74.97,1,Mesoligotrophic,2022,,103,2022,POINT (-74.97 41.5)
Weiden Pond,D-53-1-16-1-P245,1401-0124,295,25.9,B,Sullivan,Tusten,"3,150",1.4,Delaware River,no,no,no,192,private beach launches,41.59426567,-74.98280751,17,Eutrophic,2004-2013/ 2015-2021,4.6,64,2021,POINT (-74.98280751 41.59426567)
Somerset Lake,D-66-P268,1401-0141,470,20.7,B,Delaware,Hamden,106,6.1,Delaware River,no,no,no,153,lakefront only,41.91008552,-75.22899983,22,Mesotrophic,1998-2010/ 2012/ 2014-2021,20,51.1,2021,POINT (-75.22899983 41.91008552)
Lake Guymard,D- 1-10-P14,1402-0031,216,13,B,Orange,Mount Hope,111,2,Delaware River,no,no,no,132,lakefront only,41.42918,-74.59938,12,Mesotrophic,1997-2001/ 2003/ 2011-2013/ 2018-2019/ 2021,6.6,32.1,2021,POINT (-74.59938 41.42918)
Yankee Lake,D- 1-12- 8-P21,1402-0035,438,165.8,B,Sullivan,Mamakating,700,1.8,Delaware River,no,no,no,206,private beach launch,41.58669315,-74.55911698,12,Mesotrophic,2006-2011/ 2013-2015/ 2017-2019,5.9,409.5,2019,POINT (-74.55911698 41.58669315)
Wolf Lake,D- 1-33-P37,1402-0045,460,129.5,B,Sullivan,Wurtsboro,490,2.1,Delaware River,no,no,no,26,lakefront only,41.5864138,-74.58910669,18,Mesoeutrophic,1987-1992/ 1995/ 1997-2001/ 2013-2018,6.9,319.9,2018,POINT (-74.58910669 41.5864138)
Anawanda Lake,D- 1-38-3-2-P41,1402-0054,549,15.5,B(T),Sullivan,Callicoon Center,80,6.6,Delaware River,no,no,no,53,private beach,41.85708,-74.963,32,Mesoligotrophic,1988-1993/ 1995-1996/ 1998-2021,21.6,38.3,2021,POINT (-74.963 41.85708)
Pleasure Lake,D-1-38-P45,1402-0055,368,88,B,Sullivan,Fallsburg,"5,350",3.2,Delaware River,no,no,no,238,private lakefront only,41.69657135,-74.62852174,8,Eutrophic,2013-2021,10.5,217.6,2021,POINT (-74.62852174 41.69657135)
Oquaga Lake,D-71- 6-4-P383,1404-0032,479,54.4,AA,Broome,Deposit,630,13.9,Delaware River,yes,no,no,30,lakefront only,42.02236203,-75.45929366,26,Mesoligotrophic,1987-1992/ 2002-2021,45.6,134.4,2021,POINT (-75.45929366 42.02236203)
Deer Lake,D-71-10- 6-P388/ P389,1404-0038,463,13,B,Broome,Sanford,227,1.5,Delaware River,no,no,no,195,lakefront only,42.05980876,-75.55360228,12,Eutrophic,2004-2010/ 2014-2015/ 2019-2021,4.8,32.1,2021,POINT (-75.55360228 42.05980876)
Lake Lucille,NJ- 1/P977a-12-P982b,1501-0017,36,5.2,B,Rockland,New City,"1,091",1.2,Lower Hudson River,yes,no,no,1,lakefront only,41.18370102,-73.99752518,15,Eutrophic,1986-1990/ 2012-2021,3.9,12.8,2021,POINT (-73.99752518 41.18370102)
We Wah Lake,NJ-12-15-P1005,1501-0049,151,23.3,B,Orange,Tuxedo,"1,671",2.5,Raritan/Newark Bay,no,no,no,220,private beach,41.21579211,-74.19463791,10,Mesoeutrophic,2009-2012/ 2014-2016/ 2018-2019/ 2021,8.2,57.6,2021,POINT (-74.19463791 41.21579211)
Little We Wah Lake,NJ-12-15-P 1006,1501-0049,160,4.5,B,Orange,Tuxedo,"1,568",2.2,Raritan/Newark Bay,no,no,no,221,lakefront only,41.21061085,-74.20045471,11,Mesoeutrophic,2009-2012/ 2014-2019/ 2021,7.1,11.1,2021,POINT (-74.20045471 41.21061085)
Tuxedo Lake,NJ-12-15-P1007,1501-0050,170,116.6,AA(T),Orange,Tuxedo,"1,477",8.9,Raritan/Newark Bay,yes,no,no,222,lakefront only,41.19701324,-74.20907306,11,Mesotrophic,2009-2012/ 2014-2019/ 2021,29.3,288,2021,POINT (-74.20907306 41.19701324)
Lake Missapogue,LPB-123-1-P 661,1701-0125,2,31.1,B,Suffolk,Southhampton,619,7.3,Long Island Sound/Atlantic Ocean,no,no,no,228,private beach,40.92016421,-72.41925439,10,Mesotrophic,2011-2014/ 2016-2021,23.9,76.8,2021,POINT (-72.41925439 40.92016421)
Little Fresh Pond,(MW6.3c) GB..LPB-123..P661/ P662,1701-0125,3,7.8,B,Suffolk,Southhampton,224,3,Long Island Sound/Atlantic Ocean,no,no,no,58,lakefront only,40.91817051,-72.408429,27,Eutrophic,1989-1994/ 1997/ 2002-2021,9.8,19.3,2021,POINT (-72.408429 40.91817051)
Fresh Pond,SIS-SI-P458,1701-0241,1,6,C,Suffolk,Shelter Island,73,6,Long Island Sound/Atlantic Ocean,yes,yes,yes,258,public carry down/ informal,41.05710637,-72.33632714,4,Mesoeutrophic,2018-2021,19.7,14.1,2021,POINT (-72.33632714 41.05710637)
Little Long Pond,(MW7.1b) AO-P790-P799/ P800/ P803,1701-0291,5,5.2,C,Suffolk,Southampton,98,2.9,Long Island Sound/Atlantic Ocean,no,no,no,210,no access,40.93326184,-72.32088643,14,Mesotrophic,2007-2010/ 2012-2021,9.4,12.8,2021,POINT (-72.32088643 40.93326184)
Long Pond,SIS-132-P702,1701-0353,4,27.9,C,Suffolk,Southampton,461,1,Long Island Sound/Atlantic Ocean,no,yes,yes,209,public launch,40.975739,-72.291392,6,Mesoeutrophic,2016-2021,3.3,68.9,2021,POINT (-72.291392 40.975739)
Indian Falls Lake,ONT-158-12-20A-P5214,NA,240,,,Genesee,Pembroke,49,,Lake Erie/Niagara River,NA,,,269,private,43.028,-78.407,1,Eutrophic,2022,,,2022,POINT (-78.407 43.028)
