Site_ID,PWL_ID,Segment_Name,Municipality,Site Description,Latitude,Longitude,DEC_Region,Watershed_ID,sampleinfo_present,chem_lab_present,chem_insitu_present,macroinfometrics_present,macroraw_present,habitat_present,userperc_present
17-ABET-1.0,1701-0239,Abets Creek,Brookhaven,upstream of culvert on south country rd.,40.761745,-72.976233,1,(MW6.3e) GB-SIS-SHB-134,T,F,T,T,T,T,T
03-ABIJ-2.9,0303-0053,Abijah Creek,Worth,500 ft east off cr 95.,43.76523,-75.89215,6,Ont 45,F,F,F,F,F,F,T
11-LROND-0.0,1104-0074,Adirondack Lake,Indian Lake,,43.79,-74.2624,5,H-461-15-P587a,F,F,F,F,T,F,F
13-AGAW-3.2,1310-0060,Agawamuck Creek,Claverack,20 m above stevers crossing rd. bridge.,42.23333,-73.63055,4,H-204- 3,T,F,T,T,T,F,F
02-ALBC-0.1,0202-0068,Alder Bottom Creek,Sherman,Upstream Sherman Clymer road / Coutney Touring route 15.,42.107368,-79.625273,9,Pa-81-25,T,,T,,,T,T
10-ALDE-0.7,1003-0038,Alder Brook,Franklin,10 m above rte 3.,44.57167,-73.94384,5,C- 15-22,T,T,T,T,T,T,T
07-ALDC-0.1,0703-0067,Alder Creek,Lewis,near fish creek. 15 m above junction rd. bridge. 40 m above e. br. fish creek.,43.52778,-75.54916,6,ONT-66-11-P26-24-14-29,T,F,T,T,T,T,T
08-ALDR-2.0,0801-0424,Alder Creek,Boonville,10 m below egypt rd. bridge.,43.42306,-75.23027,6,ONT-19-103,T,F,T,F,F,F,F
14-LALDR-0.0,1403-0086,Alder Lake,Hardenburgh,Site Condition listed as reference.,42.048401,-74.6763,3,D-70-20-47-P346,F,F,F,F,T,F,F
09-ALDM-0.8,0902-0115,Alder Meadow Brook,Parishville,cook rd. bridge half mile from colton parishville rd.,44.619304,-74.843002,6,SL(C)-32-20-12,T,T,T,T,T,T,T
02-ALGY-9.4,0201-0023,Allegheny River,Cold Spring,rte. 17 bridge.,42.1,-78.86195,9,PA-53,T,F,T,T,T,F,F
02-ALGY-20.3,0201-0023,Allegheny River,Salamanca,200 m below main street bridge.,42.15716,-78.71793,9,PA-53,T,T,T,T,T,T,T
02-ALGY-21.1,0201-0023,Allegheny River,Salamanca,150 m above rt. 417 bridge.,42.15454,-78.70354,9,PA-53,T,F,T,T,T,T,T
02-ALGY-28.6,0201-0024,Allegheny River,Carrollton,200 m below sr 219 bridge.,42.08372,-78.6417,9,PA-53,T,F,T,T,T,F,T
02-ALGY-33.1,0201-0024,Allegheny River,Allegany,above bridge off south nine mile rd.,42.09417,-78.57388,9,PA-53,T,F,T,T,T,F,T
02-ALGY-37.4,0201-0025,Allegheny River,Allegany,south side of allegheny bridge.,42.09031,-78.50125,9,PA-53,T,F,T,T,T,F,T
02-ALGY-42.0,0201-0025,Allegheny River,Olean,below union st. (rte 16) bridge. at boat launch.,42.0701,-78.4312,9,PA-53,T,F,T,T,T,F,T
02-ALGY-44.5,0201-0009,Allegheny River,Olean,above haskell creek; e. river drive.,42.06582,-78.39345,9,PA-53,T,F,T,T,T,F,T
02-ALGY-49.5,0201-0026,Allegheny River,Portville,250 m below west river rd. bridge.,42.01625,-78.34212,9,PA-53,T,F,T,T,T,T,T
09-ALLE-1.9,0902-0100,Allen Brook,Lawrence,hallahan rd.,44.79634,-74.71885,6,SL(C)-32- 6- 3,F,F,F,F,F,F,F
09-ALLE-6.6,0902-0101,Allen Brook,Lawrence,cr 55 bridge.,44.75774,-74.66948,6,SLC-32-6-3-2,T,F,T,F,F,T,T
12-ALLN-0.1,1202-0066,Allen Brook,Hunter,100 m above confl w/gooseberry ck. below golf cours.,42.18889,-74.14917,4,H-240-82-147b-1,T,F,T,F,F,F,F
03-ALEN-0.3,0302-0022,Allen Creek,Penfield,allen creek development; 50 m below bridge.,43.13134,-77.50321,8,ONT-18-P113-3-8,T,F,T,T,T,F,F
03-ALEN-7.8,0302-0022,Allen Creek,Henrietta,just upstream of brighton henrietta.,43.09546,-77.58852,8,ONT-18-P113-3-8,T,F,T,T,T,T,T
03-WCORG-1.4,0302-0022,Allen Creek,Brighton,upstream from swimming/fishing hole in corbett's glen nature park.,43.134266,-77.525088,8,ONT-108/P113-3,F,F,F,F,F,F,F
12-ALPL-0.2,1201-0099,Alplaus Kill,Glenville,at alplaus ave bridge.,42.85472,-73.90334,4,H-24-20,F,F,F,T,T,F,F
12-ALPL-1.5,1201-0099,Alplaus Kill,Glenville,50 m above glenridge rd. bridge.,42.8669,-73.90219,4,H-240-20,T,T,T,T,T,F,F
12-ALPL-1.8,1201-0099,Alplaus Kill,Glenville,just upstream of confluence with indian kill.,42.86985,-73.90183,4,H-240-20-2,T,F,F,F,F,F,F
12-ALPL-3.0,1201-0099,Alplaus Kill,Clifton Park,at end of rustic rd.,42.8875,-73.89638,5,H-24-20,F,F,F,T,T,F,F
12-ALPL-6.2,1201-0099,Alplaus Kill,Glenville,above van vorst rd.,42.90528,-73.91889,4,H-24-20,F,F,F,T,T,F,F
12-ALPL-9.9,1201-0099,Alplaus Kill,Charlton,below swaggertown rd.,42.92472,-73.97056,5,H-24-20,F,F,F,T,T,F,F
12-ALPL-10.8,1201-0099,Alplaus Kill,Charlton,75 m upstream of crane st bridge.,42.930292,-73.98356,4,H-240-20,F,F,F,F,F,F,F
12-ALPL-12.9,1201-0099,Alplaus Kill,Charlton,above charlton rd.,42.93778,-74.00639,5,H-24-20,F,F,F,T,T,F,F
12-ALPL-16.1,1201-0099,Alplaus Kill,Charlton,below route 67.,42.9745,-74.0199,5,H-24-20,T,T,T,T,T,T,T
12-WALPL-1.5,1201-0099,Alplaus Kill,Glenville,glenridge rd. upstream from bridge.,42.867441,-73.901717,4,H-240-20,F,F,F,F,F,F,F
12-WALPL-10.8,1201-0099,Alplaus Kill,Charlton,75 m upstream of crane st bridge.,42.930292,-73.98356,4,H-240-20,F,F,F,F,F,F,F
07-AMBR-0.2,0702-0030,Amber Creek,Otisco,Otisco Valley Rd / route 124 crossing.,42.889618,-76.297213,7,Ont  66-12-12-P154- 6-P175-,T,,T,,,T,T
09-AMPR-2.6,0903-0162,Ampersand Brook,Harrietstown,coreys rd. walk thru woods to stream.,44.19833,-74.29666,5,SL-1-133,T,T,T,T,T,T,T
14-LANAW-0.0,1401-0129,Anawanda Lake,Fremont,,41.85738,-74.96345,3,D-53-2- 9-2-P251,F,F,F,F,T,F,F
14-ANAW-0.4,1402-0052,Anawanna Brook,Thompson,60 meters nw off thompson.,41.65778,-74.66293,3,D- 1-38-3-2,T,T,T,T,T,T,T
04-LANDR-0.0,0403-0056,Andover Pond,Andover,Access type is Public. Public park no boat launch.,42.1656,-77.793602,9,Ont 117-184-12-P164,F,F,F,F,T,F,F
04-ANGL-1.1,0403-0026,Angelica Creek,Angelica,camp rd. (co rte 43) bridge.,42.29539,-78.05774,9,ONT-117-155,T,T,T,T,T,T,T
04-ANGL-3.0,0403-0026,Angelica Creek,Angelica,cr 16 (w main st).,42.3124,-78.03759,9,ONT-117-155,F,F,F,F,F,F,F
04-ANGL-12.3,0403-0026,Angelica Creek,West Almond,at south and turnpike rd. junction.,42.30072,-77.8855,9,ONT-117-155,T,F,T,F,F,T,T
04-ANGL-12.5,0403-0026,Angelica Creek,West Almond,downstream of karr valley rd. salt storage at bridge.,42.300518,-77.882641,9,Ont 117-155,T,T,T,T,T,T,T
04-ANGL-12.9,0403-0026,Angelica Creek,West Almond,off south rd. just above conf. with tributary.,42.29833,-77.87631,9,ONT-117-155,T,T,T,T,T,T,T
13-AFLY-0.9,1302-0086,Angle Fly Brook,Somers,20 m above rt. 35 bridge.,41.2825,-73.72527,3,H- 31-P44-15 thru 16a,T,F,T,T,T,F,F
13-ANNS-1.1,1301-0133,Annsville Creek,Cortlandt,20 m below rte 9 bridge.,41.31805,-73.93056,3,H- 46 thru 59. EOH (selected),T,F,T,T,T,F,F
11-ANTH-0.5,1101-0025,Anthony Kill,Mechanicville,70 m below sr 4 bridge.,42.90639,-73.68722,5,H-26,T,F,T,T,T,F,F
11-ANTH-0.8,1101-0025,Anthony Kill,Mechanicville,off saratoga ave.,42.909168,-73.689163,5,H-260,F,T,F,F,F,F,F
11-ANTH-1.0,1101-0025,Anthony Kill,Mechanicville,5 m above viall st bridge.,42.90972,-73.69167,5,H-26,T,F,T,T,T,T,T
06-APAL-0.1,0603-0014,Apalachin Creek,Owego,100 m below rt. 17 bridge. 100 m above confluence.,42.06333,-76.14332,7,SR-24,T,F,T,T,T,F,F
06-APAL-0.2,0603-0014,Apalachin Creek,Owego,50 m above rt. 434 bridge.,42.0625,-76.14638,7,SR-24,T,F,T,T,T,F,F
11-ARCH-1.9,1104-0055,Archer Creek,Newcomb,off caitlin lake rd.,43.99733,-74.24594,5,H-503-P680-5-P682-6-P684-1,T,F,T,T,T,F,F
10-ARNO-0.1,1004-0018,Arnold Brook,Peru,30 m above state highway 22.,44.59646,-73.51199,5,C-23,F,F,F,F,F,F,F
12-ASHC-2.8,1203-0042,Ash Creek,Ohio,at sr 8 bridge.,43.31827,-74.97597,6,H-240-180-P799-19-4,T,T,T,T,T,T,T
06-ABEL-0.2,0602-0168,Ashbell Brook,Otselic,cr 13.,42.649115,-75.786442,7,SR- 44-14-27-47,T,F,T,T,T,T,T
13-ASHK-0.8,1307-0005,Ashokan Brook,Olive,rte. 28.,41.97417,-74.19861,3,H-171/P848- 1 thru 12 (selected),F,F,F,F,F,F,F
08-AWAT-1.0,0801-0222,Atwater Creek,Martinsburg,15 m above west rd.,43.72081,-75.47881,6,ONT-19-58-6,T,F,T,T,T,F,F
08-AWAT-2.6,0801-0330,Atwater Creek,Martinsburg,at graves rd. bridge.,43.71033,-75.51623,6,Ont  19- 58- 6,T,T,T,T,T,T,T
10-LAUGR-0.0,1004-0020,Augur Lake,Chesterfield,lake sampled for 2008 lake biomonitoring pilot project.,44.47028,-73.49528,5,C- 25,F,F,F,F,T,F,T
12-AURI-0.3,1201-0116,Auriesville Creek,Glen,at rte 5s bridge.,42.93028,-74.31722,4,H-240-84,T,F,T,F,F,F,F
10-LRNC_03-0.2,1004-0015,Ausable River,Peru,just upstream from ausable point campground boat launch on far shore.,44.56694,-73.42555,5,C- 25,F,F,F,F,F,F,F
10-SABL-2.2,1004-0015,Ausable River,Peru,100 m above rt. 9 bridge.,44.55889,-73.44917,5,C- 25,T,T,T,T,T,T,T
10-SABL-7.6,1004-0020,Ausable River,Chesterfield,downstream of main st. bridge in keeseville.,44.504102,-73.481615,5,C- 25,T,T,T,T,T,T,T
10-SABL-13.1,1004-0020,Ausable River,Ausable,otter slide.,44.48221,-73.55639,5,C- 25,T,F,T,T,T,T,T
10-SABL-14.6,1004-0020,Ausable River,Clintonville,bridge on lower rd.,44.464375,-73.575255,5,C- 25,F,T,F,F,F,F,F
10-SABL-14.7,1004-0020,Ausable River,Ausable,10 m above bridge off lower rd.,44.465,-73.575,5,C- 25,T,F,T,T,T,F,F
10-SABL-19.3,1004-0020,Ausable River,Black Brook,rt 9n.,44.44932,-73.65453,5,C-25,T,F,T,T,T,T,T
12-AVAB-0.1,1201-0217,Ava Brook,Lee,river rd. bridge.,43.37361,-75.47667,6,H-24-290,T,F,T,F,F,F,F
17-AWIX-0.7,1701-0093,Awixa Creek,Islip,10 m below union blvd bridge.,40.7275,-73.23054,1,(MW7.8)  AO-GSB-197,F,F,F,T,T,F,F
12-AYER-0.8,1201-0174,Ayers Creek,Stratford,piesco rd. culvert.,43.19083,-74.68056,5,H-240-144-21-2-1,T,F,T,T,T,F,F
11-LBABC-0.0,1102-0014,Babcock Lake,Petersburg,,42.81681,-73.3996,4,H-264-4-P1095-3-6-P1109,F,F,F,F,T,F,F
14-BAGL-0.7,1404-0065,Bagley Brook,Hamden,bagley brook rd. bridge.,42.20167,-74.96917,4,D-71-54,T,F,T,F,F,F,F
13-BAIL-1.0,1302-0148,Bailey Brook,Yorktown,blinn rd.,41.22046,-73.83681,3,H- 31-P44-44 thru 55,T,F,T,T,T,T,T
08-BAKB-1.0,0801-0442,Baker Brook,Remsen,immediately below bardwell mill rd. (cr 72) bridge.,43.38794,-75.16658,6,ONT-19-111,T,F,T,T,T,F,F
04-BAKE-0.3,0403-0066,Baker Creek,Angelica,rte. 16; 50 m above bridge.,42.30901,-78.04313,9,ONT-117-155-2,T,F,T,F,F,F,F
05-BAKE-0.3,0503-0012,Baker Creek,Canisteo,"at campbell rd crossing, alternate rod and gun club rd",42.264939,-77.547768,8,Pa  3-57- 5 (portion 3),T,,T,,,T,T
03-BEAG-1.8,0301-0034,Bald Eagle Creek,Kendall,cr 75.,43.354688,-78.01837,8,Ont 134,F,F,F,F,F,F,F
16-BALD-0.6,1601-0033,Baldwin Brook,Austerlitz,rhoen rd. bridge.,42.332541,-73.429031,4,Mass 5a thru 7a,T,F,T,T,T,T,T
05-BWIN-1.1,0501-0022,Baldwin Creek,Ashland,30 m above co rt 60 bridge.,42.03,-76.71889,8,PA-3-14,T,F,T,F,F,F,F
05-BWIN-4.1,0501-0023,Baldwin Creek,Elmira,above lowman rd. (co rt 2) bridge.,42.06528,-76.73389,8,PA-3-14,T,F,T,T,T,F,F
05-BWIN-9.5,0501-0023,Baldwin Creek,Baldwin,olin rd crossing,42.127712,-76.704839,8,Pa  3-14,T,,,,,,
12-BALU-0.1,1201-0093,Ballou Creek,Utica,downstream of cso outlet.,43.10139,-75.20084,6,H-240-211,T,T,T,T,T,T,T
11-WBALT-2.0,1101-0061,Ballston Creek,Malta,eastline rd. to shenantaha creek park.,42.9666,-73.8239,5,H-260-P1089-3,F,F,F,F,F,F,F
11-LBALL-0.0,1101-0036,Ballston Lake,Ballston,,42.935335,-73.85935,5,H-260-P1089-3-P1090,F,F,F,F,T,F,F
11-LBALL-1.0,1101-0036,Ballston Lake,Ballston,,42.936777,-73.86154,5,H-260-P1089-3-P1090,F,F,T,F,F,F,F
11-LBALL-2.0,1101-0036,Ballston Lake,Ballston,,42.924036,-73.86505,5,H-260-P1089-3-P1090,F,F,T,F,F,F,F
11-LBALL-3.0,1101-0036,Ballston Lake,Ballston,,42.912187,-73.86957,5,H-260-P1089-3-P1090,F,F,T,F,F,F,F
11-LBALL-4.0,1101-0036,Ballston Lake,Ballston,,42.925031,-73.86363,5,H-260-P1089-3-P1090,F,F,T,F,F,F,F
11-LBALL-5.0,1101-0036,Ballston Lake,Ballston,,42.936226,-73.85642,5,H-260-P1089-3-P1090,F,F,T,F,F,F,F
11-LBALL-6.0,1101-0036,Ballston Lake,Ballston,,42.947404,-73.85367,5,H-260-P1089-3-P1090,F,F,T,F,F,F,F
11-LBALL-7.0,1101-0036,Ballston Lake,Ballston,,42.9559,-73.8519,5,H-260-P1089-3-P1090,F,F,T,F,F,F,F
11-LBALL-8.0,1101-0036,Ballston Lake,Ballston,,42.943331,-73.85785,5,H-260-P1089-3-P1090,F,F,T,F,F,F,F
06-BALL-0.4,0602-0030,Ballyhack Creek,Fenton,ballyhack rd. above osborne ck.,42.1725,-75.82082,7,SR-44-10-1,T,F,T,T,T,T,T
08-BALS-2.5,0801-0239,Balsam Creek,Croghan,erie canal rd.,43.9525,-75.33971,6,ONT-19-40-10,T,F,T,T,T,F,F
12-BARK-0.6,1204-0013,Barker Creek,Augusta,barker rd.,42.935398,-75.48748,6,H-240-223-45,T,T,T,F,F,T,T
14-BARN-0.7,1402-0046,Barnum Brook,Thompson,tucci rd. culvert.,41.62667,-74.63249,3,D- 1-34.35.36,T,F,T,T,T,F,F
07-BRNM-4.6,0705-0070,Barnum Creek,Ovid,In front of town facility just above County road 130,42.661889,-76.787398,8,Ont  66-12-P296- 99 thru 167 (sel.),T,,T,,,T,T
07-BRNM-4.7,0705-0070,Barnum Creek,Ovid,50 m US of town building off County road 130,42.661258,-76.788899,8,Ont  66-12-P296- 99 thru 167 (sel.),T,,T,,,T,T
13-LBRTP-0.0,1302-0115,Barrett Pond,Kent,"Access type is Private. need lake resident access, but very likely (contacts available).",41.434399,-73.740601,3,H- 31-P44-23..P67..P71,F,F,F,F,T,F,F
10-ADKS12_240-0.1,1001-0025,Bartlett Brook,Moriah,just north off pelfishire rd. from bartlett brook rd. crossing.,44.080556,-73.491389,5,C- 86-3,T,F,F,T,T,T,T
10-BRTB-1.0,1001-0025,Bartlett Brook,Moriah,Approx 30m off Cheney rd,44.069131,-73.48431,5,C- 86-3,T,,T,,,,T
13-BASH-5.2,1308-0021,Bash Bish Brook,Copake,50 m below valley view rd. bridge.,42.11955,-73.51849,4,H-188-59,T,F,F,F,F,F,F
14-BSHR-0.4,1402-0032,Basher Kill,Deerpark,30 m below galley hill rd. bridge.,41.45361,-74.58944,3,D- 1-12,T,T,T,T,T,F,F
14-BSHR-3.7,1402-0040,Basher Kill,Deerpark,port orange rd.,41.4859,-74.57382,3,D- 1-13,T,T,T,T,T,T,T
13-BASC-0.4,1309-0027,Basic Creek,Greenville,50 m above co. rt. 67 bridge.,42.35972,-74.05083,4,H-193-29,T,T,T,T,T,T,T
13-BASC-4.7,1309-0027,Basic Creek,Greenville,20 m above rt. 81 bridge.,42.41278,-74.03584,4,H-193-29,T,F,T,T,T,F,T
13-BASC-7.3,1309-0027,Basic Creek,Westerlo,at rt. 405 bridge.,42.44667,-74.02778,4,H-193-29,T,F,T,T,T,F,F
13-BASC-12.4,1309-0028,Basic Creek,Westerlo,100 m below lobdell mill rd. bridge.,42.50028,-74.03167,4,H-193-29,T,F,T,T,T,F,F
13-BASC-14.3,1309-0028,Basic Creek,Westerlo,10 m below cr 1 bridge.,42.51417,-74.04722,4,H-193-29,T,F,T,T,T,F,F
13-BASC-16.5,1309-0028,Basic Creek,Westerlo,10 m below culvert at richardson farm.,42.54306,-74.04722,4,H-193-29,T,F,T,T,T,F,F
14-BASK-0.3,1401-0135,Basket Creek,Fremont,rte 134; where stream comes close to rd.,41.84767,-75.11049,3,D-59,T,F,T,F,F,F,F
14-BASS-0.2,1404-0076,Basset Brook,Harpersfield,bridge on rt 10 basset brook.,42.390211,-74.647502,4,D-71-62 thru 96,T,T,T,T,T,T,T
12-BATV-0.1,1202-0001,Batavia Kill,Prattsville,rte 23a bridge; 60 m above mouth.,42.30264,-74.41977,4,H-240-82-117,T,F,T,T,T,T,T
12-BATV-0.2,1202-0001,Batavia Kill,Prattsville,rte 23a bridge.,42.30389,-74.4175,4,H-240- 82-117,F,T,F,F,F,F,F
12-BATV-10.1,1202-0001,Batavia Kill,Windham,10 m below co. rt. 12 bridge. south st.,42.30278,-74.2725,4,H-240-82-117,T,T,T,T,T,T,T
12-BATV-10.6,1202-0058,Batavia Kill,Windham,sr 23; behind elks lodge.,42.30674,-74.26626,4,H-240-82-117,F,F,F,F,F,F,F
12-BATV-11.6,1202-0058,Batavia Kill,Windham,at rt. 79 bridge.,42.30583,-74.25195,4,H-240-82-117,T,F,T,T,T,F,F
12-BATV-12.5,1202-0058,Batavia Kill,Windham,lake heloise trib. immediately below rt. 23 bridge.,42.30889,-74.23416,4,H-240-82-117-14,T,F,T,T,T,F,F
12-BATV-12.6,1202-0058,Batavia Kill,Windham,30 m above rt. 296 bridge.,42.30806,-74.23139,4,H-240-82-117,T,F,T,T,T,F,F
12-BATV-14.0,1202-0058,Batavia Kill,Windham,silver lake tributary 1 m below rt. 65 bridge.,42.29528,-74.21333,4,H-240-82-117-17,T,F,T,T,T,T,T
12-BATV-14.3,1202-0058,Batavia Kill,Windham,30 m below rt. 40 bridge.,42.28861,-74.21528,4,H-240-82-117,T,F,T,T,T,F,F
12-BATV-14.8,1202-0001,Batavia Kill,Ashland,Off rt 23,42.295294,-74.349868,4,H-240- 82-117,T,T,T,F,F,T,T
12-BATV-17.9,1202-0001,Batavia Kill,Ashland,50 m below rt. 17 bridge.,42.29361,-74.30695,4,H-240-82-117,T,F,T,T,T,F,F
14-BATK-0.5,1403-0102,Batavia Kill,Middletown,100 m above rt. 30 bridge.,42.18167,-74.59333,4,D-70-84,T,F,T,F,F,F,F
11-BACH-0.1,1104-0106,Batcheller Creek,Edinburg,20 m above saratoga co rte 7 bridge.,43.20833,-74.08082,5,H-369-P127-11,T,F,T,T,T,F,F
11-BATT-0.5,1103-0010,Batten Kill,Easton,below bridge.,43.11444,-73.57026,5,H-301,T,F,T,T,T,F,F
11-BATT-6.5,1103-0010,Batten Kill,Greenwich,0.4 miles above hegeman rd. bridge.,43.09083,-73.51278,5,H-301,T,F,T,T,T,F,F
11-BATT-9.6,1103-0011,Batten Kill,Greenwich,off rt. 29.,43.09361,-73.4625,5,H-301,T,F,T,T,T,T,T
11-BATT-10.2,1103-0011,Batten Kill,Jackson,200 m above ray rd. bridge.,43.09833,-73.45694,5,H-301,T,T,T,T,T,F,F
11-BATT-13.1,1103-0011,Batten Kill,Greenwich,off rt. 29; 0.8 miles above bridge.,43.11538,-73.417097,5,H-301,T,F,T,T,T,T,T
11-BATT-18.0,1103-0012,Batten Kill,Salem,rte 22 bridge; downstream.,43.14528,-73.36472,5,H-301,T,F,T,T,T,F,F
11-BATT-23.6,1103-0012,Batten Kill,Salem,rte 64 bridge; 100 m downstream.,43.0775,-73.34389,5,H-301,T,F,T,T,T,F,F
11-BATT-28.6,1103-0012,Batten Kill,Salem,100 m above rt. 313 parking area.,43.10338,-73.272078,5,H-301,T,F,T,T,T,T,T
11-BATT-34.2,,Batten Kill,Arlington (VT),benedict crossing bridge; 200 m above.,43.08805,-73.19778,0,,T,F,T,T,T,F,F
11-BATT-45.6,,Batten Kill,Manchester Center (VT),off riverbend rd; walk 50 m above lye bk confluence.,43.14583,-73.05972,0,,T,F,T,T,T,F,F
11-BATT-46.1,,Batten Kill,Manchester Center (VT),500 m below manchester stp effluent.,43.15306,-73.05556,0,,T,F,T,T,T,F,F
11-BATT-46.8,,Batten Kill,Manchester Center (VT),union st bridge; 10 m below.,43.16195,-73.0561,0,,T,F,T,T,T,F,F
02-BTLC-0.6,0202-0043,Battle Creek,Randolph,Off Jamestown street / NY 394.,42.164578,-78.984093,9,Pa-63-25- 2,T,,T,,,T,T
14-BAXT-0.3,1403-0090,Baxter Brook,Hancock,rte 30 bridge; 30 m upstream.,42.025,-75.115,4,D-70-23,T,F,T,F,F,F,F
14-BAXT-3.6,1403-0090,Baxter Brook,Hancock,east off houck mountain rd.,42.06929,-75.10797,4,D-70-23,T,F,T,T,T,T,T
06-BEAB-0.3,0602-0143,Bear Brook,Oxford,10 m above cr 32 bridge.,42.38833,-75.62443,7,SR-44-38,T,F,T,T,T,F,F
10-ADKS11_171-0.2,1004-0074,Bear Brook,Keene,10 m above johns brook trail.,44.18132,-73.82802,5,C- 25-27-36,T,F,T,T,T,T,T
03-BARA-0.3,0303-0055,Bear Creek,Ellisburg,torrey hill rd.,43.733068,-76.130297,6,Ont  45- 4,T,F,T,T,T,F,F
03-BARA-11.5,0303-0055,Bear Creek,Lorraine,brown rd.,43.73607,-75.97264,6,Ont  45- 4,T,T,T,T,T,T,T
03-BERO-4.4,0302-0071,Bear Creek,Ontario,450 ft east off cr 110.,43.235727,-77.272173,8,Ont  96,F,F,F,F,F,F,F
03-WBERO-0.1,0302-0071,Bear Creek,Ontario,above cr 101 (lake rd).,43.2756,-77.27489,3,Ont-96,F,F,F,F,F,F,F
08-BARE-3.7,0801-0429,Bear Creek,Forestport,bear creek rd. bridge.,43.52942,-75.12756,6,ONT-19-14-3,T,F,T,T,T,F,F
17-KEND-0.6,1702-0113,Bear Gutter Creek,North Castle,5 m below rte 22.,41.11444,-73.72361,3,(MW2.4)  ER-3-P1063-,T,T,T,T,T,T,T
17-KEND-0.9,1702-0113,Bear Gutter Creek,North Castle,kaysal ct.; 200 m before end.,41.11945,-73.7225,3,(MW2.4)  ER-3-P1063-,F,F,F,T,T,F,F
12-BEAR-1.5,1202-0054,Bear Kill,Roxbury,hiked down hill to stream from pull-off across from suburban propane.,42.3529,-74.46772,4,H-240-82-P638a-113,T,F,T,T,T,F,F
12-BEAR-3.9,1202-0054,Bear Kill,Roxbury,100 m above rt. 30 bridge.,42.36389,-74.49472,4,H-240-82-P638a-113,T,F,T,F,F,F,F
02-BRLO-4.8,0202-0039,Bear Lake Outlet,Stockton,walk 500 meters east off barnes rd. when you come to coordinates 42.301 / -79.368.,42.301,-79.362,9,PA-63-13-23,F,F,F,F,F,F,F
07-BSWP-0.1,0707-0005,Bear Swamp Creek,Niles,appletree fire lane.,42.82246,-76.32969,7,Ont  66-12-29-P193-,T,T,T,T,T,T,T
07-BSWP-1.3,0707-0005,Bear Swamp Creek,Niles,"apple tree point rd.


























10 m upstream.",42.81111,-76.34306,7,ONT-66-12-29-P193-73,T,T,T,T,T,T,T
04-BERD-0.9,0402-0037,Beards Creek,Leicester,100 m below rte 20a bridge.,42.77726,-77.8595,8,ONT-117-6,T,F,T,T,T,F,F
04-BERD-2.5,0402-0037,Beards Creek,Leicester,50 m below river rd. bridge.,42.76778,-77.87361,8,ONT-117-6,T,F,T,T,T,F,F
04-BERD-5.6,0402-0014,Beards Creek,Leicester,peoria rd. 60 m downstream at outflow of beaver dam.,42.798173,-77.889292,8,Ont 117-60-2,T,F,T,T,T,F,T
08-BEAU-1.9,0801-0347,Beauty Creek,Lyonsdale,at marmon rd. / cr 39 bridge.,43.6037,-75.31306,6,ONT-19-81-2-2,T,F,T,T,T,T,T
09-BVBK-0.1,0903-0200,Beaver Brook,Indian Lake,inlet from blue mountain lake. access from end of eagle nest rd.,43.8648,-74.47869,5,SL- 1-P109..P293-,F,F,F,F,F,F,F
10-BEAW-2.3,1004-0039,Beaver Brook,Westport,rt 9.,44.23364,-73.38267,5,C- 48,T,F,T,T,T,T,T
11-BEVS-0.3,1103-0004,Beaver Brook,Salem,cary lane.,43.17167,-73.33305,5,H-31-2-1-2,T,F,T,T,T,F,F
12-BEVB-0.3,1201-0192,Beaver Brook,Herkimer,5 m above cr 231.,43.02278,-74.92222,6,H-24-172,T,F,T,T,T,F,F
14-BEBR-0.2,1401-0089,Beaver Brook,Highland,20 m above rt. 97 bridge.,41.4825,-74.95028,3,D-30,T,F,T,F,F,F,F
14-BEBR-8.2,1401-0090,Beaver Brook,Tusten,5 m below blind brook rd.,41.57186,-74.91086,3,D-30,T,T,T,T,T,T,T
17-BVBR-0.3,1702-0153,Beaver Brook,Oyster Bay,frost mill rd.; 5-10 m below old rd. bridge in preserve. park at preserve and follow red trail to blue trail.,40.878102,-73.565952,1,(MW4.4a) LIS-OBH-MNC-44 thru 48,T,T,T,T,T,T,T
01-BEVC-1.1,0105-0016,Beaver Creek,Sheridan,at west middle rd. bridge. just past airport.,42.50187,-79.2683,9,E-31,T,F,T,T,T,F,F
03-BEEK-4.5,0302-0062,Beaver Creek,Lummisville,lummisville rd.; second choice: ridge rd. town of huron 43.223314 / -76.896993.,43.243124,-76.899616,8,Ont  82/P93 ..,T,T,T,F,T,T,T
06-BEVR-1.5,0601-0053,Beaver Creek,Columbus,where south brookfield rd. comes close to stream.,42.73444,-75.30972,7,SR-146-44,T,T,T,T,T,T,T
06-BEVR-7.8,0601-0151,Beaver Creek,Brookfield,downstream of skaneateles turnpike bridge.,42.812638,-75.319855,7,SR-146-44,T,F,T,T,T,T,T
07-BVRK-0.3,0704-0038,Beaver Creek,Farmington,mertensia rd.,42.97139,-77.36472,8,ONT-66-12-52-23-46,T,F,T,T,T,F,F
09-BAVR-6.9,0905-0117,Beaver Creek,De Kalb,cr17 bridge. after newcomb rd.,44.52639,-75.40194,6,SL-25-13,T,F,T,T,T,F,F
12-BEVK-2.5,1201-0159,Beaver Creek,Fairfield,5 m above beaver rd. bridge.,43.15306,-74.87944,6,H-240-144-9-5,T,T,T,T,T,T,T
12-BVCK-0.1,1201-0014,Beaver Creek,Trenton,40 m from fox rd.,43.23639,-75.25278,6,H-240-227-21,T,F,T,T,T,T,T
07-BVRK-5.8,0704-0038,Beaver Creek,Canandaigua,At Yerkes road crossing.,42.922841,-77.339701,8,Ont  66-12-52-23-46,T,,,,,,
13-BEVE-0.1,1307-0033,Beaver Kill,Shandaken,25 m below cr 40 bridge (off rte 212).,42.04694,-74.27665,3,H-171/P848-43,T,F,T,T,T,T,T
13-BVKL-0.2,1309-0015,Beaver Kill,Saugerties,30 m below wilhelm rd.,42.14325,-73.96164,3,H-193- 2-12,T,F,T,T,T,F,F
13-WBVKL-6.5,1309-0015,Beaver Kill,Saugerties,downstream of augusta savage rd.,42.088442,-73.976816,3,H-193- 2-12,F,F,F,F,F,F,F
14-BEAV-0.1,1403-0051,Beaver Kill,Hancock,20 m below bridge rd. bridge.,41.98917,-75.12917,4,D-70-20,T,F,T,T,T,F,F
14-BEAV-3.2,1403-0051,Beaver Kill,Hancock,0.5 mi. below rt. 17 bridge.,41.98306,-75.075,4,D-70-20,T,F,T,T,T,F,F
14-BEAV-7.2,1403-0051,Beaver Kill,Colchester,20 m above horton brook rd. bridge.,41.97222,-75.0175,4,D-70-20,T,F,T,T,T,F,F
14-BEAV-10.0,1403-0051,Beaver Kill,Colchester,300 m above cooks brook rd. bridge.,41.94639,-74.97972,4,D-70-20,T,T,T,T,T,T,T
14-BEAV-13.8,1403-0051,Beaver Kill,Colchester,off old rt. 17; river close to rd.,41.9565,-74.9349,4,D-70-20,T,F,T,T,T,T,T
14-BEAV-15.6,1403-0052,Beaver Kill,Rockland,20 m above rt.179a bridge; above willowemoc confl.,41.93667,-74.92027,3,D-70-20,T,F,T,T,T,F,F
14-BEAV-18.5,1403-0052,Beaver Kill,Colchester,1.6 mi. below bridge at craigie clair; 450 ft off beaverkill rd.,41.96611,-74.8925,4,D-70-20,T,T,T,T,T,T,T
14-BEAV-22.2,1403-0052,Beaver Kill,Rockland,beaverkill campground; site 85.,41.978533,-74.846998,3,D-70-20,T,F,T,T,T,T,T
14-BEAV-23.0,1403-0052,Beaver Kill,Rockland,100 m below covered bridge.,41.9811,-74.8361,3,D-70-20,T,F,T,T,T,F,F
14-BEAV-26.7,1403-0052,Beaver Kill,Rockland,5 m below bridge.,42.00583,-74.78639,3,D-70-20,T,F,T,T,T,T,T
14-BEAV-39.8,1403-0023,Beaver Kill,Hardenburgh,off beaver kill rd. upstream of balsam lake outlet.,42.011547,-74.60543,3,D-70-20,T,T,T,T,T,T,T
06-LBEAV-0.0,0601-0066,Beaver Lake,Windsor,sampled in 2008 as part of lake biomonitoring pilot; composite.,42.0457,-75.66466,7,SR-99-1-P174,F,F,F,F,T,F,F
02-BMBR-1.1,0202-0065,Beaver Meadow Brook,French Creek,Downstream of NY 426,42.038368,-79.69932,9,Pa-81- 7,T,,,,,,
01-BEAM-0.1,0103-0004,Beaver Meadow Creek,Java,80 m below rte 78.,42.67204,-78.43686,9,E-1-55,T,F,T,T,T,F,F
08-BEAD-0.1,0801-0221,Beaver Meadow Creek,Watson,15 m below bailey rd. bridge.,43.78167,-75.28394,6,ONT-19-57-5,T,F,T,T,T,F,F
08-BEEV-0.8,0801-0197,Beaver River,New Bremen,30 m below van amber rd. bridge(cr 33).,43.89806,-75.49389,6,ONT-19-40,T,T,T,T,T,T,T
08-BEEV-4.0,0801-0197,Beaver River,Croghan,beaver falls rte 126 bridge 10 m below bridge. port shore.,43.88422,-75.44071,6,ONT-19-40,T,F,T,T,T,F,F
08-BEEV-4.9,0801-0197,Beaver River,New Bremen,cr 8 bridge. off rte 126.,43.88332,-75.42606,6,ONT-19-40,T,F,T,T,T,F,F
08-BEEV-8.4,0801-0273,Beaver River,Croghan,75 m below indian river rd. bridge.,43.90361,-75.38834,6,ONT-19-40,T,F,T,T,T,F,F
17-BSWA-0.4,1702-0090,Beaver Swamp Brook,Rye,at cassel ct. near rt 1.,40.95338,-73.72029,3,(MW3.3)  LIS- 9,T,F,T,T,T,T,T
12-BVRC-0.5,1202-0043,Beaverdam Creek,Berne,10 m below rt. 156 bridge.,42.63361,-74.1375,4,H-240-82-67-26,T,F,T,T,T,F,F
12-BVRC-1.3,1202-0043,Beaverdam Creek,Knox,cr 254 bridge.,42.64361,-74.13194,4,H-24-82-67-26,T,F,T,T,T,T,F
14-BVDM-0.1,1401-0019,Beaverdam Creek,Damascus (PA),pa sr 1004 bridge at junction with 371. near cochecton. ny.,41.7046,-75.06704,3,D-38 thru 52,T,F,T,F,F,F,F
17-BEVD-2.1,1701-0104,Beaverdam Creek,Southampton,upstream of lakeside lande.,40.82763,-72.658648,1,(MW7.5) AO-GSB-178,T,F,T,T,T,T,T
17-BVDC-0.1,1701-0324,Beaverdam Creek,Brookhaven,below beaver dam rd. bridge.,40.771,-72.917,1,(MW7.5)  AO-GSB-178.179,F,T,F,F,F,F,F
17-BVDC-0.4,1701-0104,Beaverdam Creek,Brookhaven,5 m below south country rd. bridge.,40.77806,-72.91583,1,(MW7.5)  AO-GSB-178,T,F,T,T,T,T,T
13-LBVRD-0.0,1303-0021,Beaverdam Lake,New Windsor,"Access type is Public beach, private lake. beach for town residents only; lake district access very likely (contacts available).",41.442001,-74.115898,3,H- 89-12-P234,F,F,F,F,T,F,F
04-BEBE-1.5,0402-0067,Bebee Creek,West Bloomfield,50 m below cr 37 bridge.,42.86033,-77.53836,8,ONT-117-27-28,T,T,T,T,T,T,T
12-WBECK-0.1,1202-0067,Becker Hollow,Hunter,Plateau Mountain Rd.,42.186186,-74.189888,4,H-240- 82-145,T,T,T,F,F,T,T
12-WBECK-0.9,1202-0067,Becker Hollow,Hunter,off becker hollow trail to hunter mtn.,42.181633,-74.204266,4,H-240-82-145,F,F,F,F,F,F,F
11-BECH-0.2,1104-0145,Beecher Creek,Edinburg,off co rte 4; 10 m above covered bridge.,43.22083,-74.10027,5,H-369-P 127-58,T,F,T,T,T,F,F
13-BEEC-1.4,1301-0160,Beechy Bottom Brook,Stony Point,250 meters east off the palisades parkway at coordinates 41.288056 / -74.025434.,41.287502,-74.0225,3,H- 61,T,F,T,T,T,T,T
02-BHUT-0.2,0201-0032,Beehunter Creek,Red House,footpath bridge in allegehny state park.,42.096733,-78.740358,9,Pa-53-15,F,F,F,T,T,F,T
01-BMAN-0.3,0102-0030,Beeman Creek,Clarence,10 m below rapids rd. bridge.,43.06947,-78.59766,9,ONT-158-12-9,T,F,T,T,T,T,T
13-BEER-0.4,1306-0116,Beer Kill,Wawarsing,75 m below rte 209 bridge.,41.72,-74.39167,3,H-139-14-38- 3,T,F,T,F,F,F,F
14-BEEB-3.5,1404-0048,Beers Brook,Walton,off of beers brook rd.,42.119651,-75.108847,4,D-71-14 thru 32,T,T,T,T,T,T,T
10-BEHA-1.0,1003-0053,Behan Brook,Saranac,40 m above picketts corner rd.,44.67302,-73.72732,5,C- 15- 11 thru 30 (selected),T,T,T,T,T,T,T
06-BELD-0.5,0601-0129,Belden Brook,Colesville,10 m below main st. bridge.,42.1809,-75.6236,7,SR-122,T,F,T,T,T,T,T
11-BELL-0.1,1101-0071,Bell Brook,Saratoga Springs,2 m above locust grove rd. bridge.,43.08861,-73.82638,5,H-299-P27-13-5-4,T,F,T,T,T,F,F
11-BELL-1.3,1101-0071,Bell Brook,Greenfield,15 m below canty rd. bridge.,43.10028,-73.84055,5,H-299-P27-13-5-4,T,F,T,T,T,T,T
12-BELN-0.4,1201-0192,Bellinger Brook,Herkimer,Downstream reference,43.022342,-75.000505,6,H-240-145 thru 184,T,T,T,F,F,T,T
12-BELN-0.6,1201-0192,Bellinger Brook,Herkimer,Bottom of lower concrete section,43.024005,-74.997916,6,H-240-145 thru 184,T,T,T,F,F,T,T
12-BELN-0.9,1201-0192,Bellinger Brook,Herkimer,Top of lower concrete section,43.029434,-74.998213,6,H-240-145 thru 184,T,T,T,F,F,T,T
12-BELN-1.3,1201-0192,Bellinger Brook,Herkimer,Upper concrete section,43.033519,-74.998828,6,H-240-145 thru 184,T,T,T,F,F,T,T
12-BELN-1.4,1201-0192,Bellinger Brook,Herkimer,Upstream reference,43.035093,-74.999879,6,H-240-145 thru 184,T,T,T,F,F,T,T
17-BMOR-3.3,1701-0204,Bellmore Creek,Hempstead,wantagh state parkway.,40.68167,-73.51528,1,(MW8.2a) EB-224 thru 227 (selected),T,F,T,T,T,T,T
01-BELS-2.7,0105-0003,Belson Creek,Ripley,30 m below sr 76 culvert.,42.24472,-79.69724,9,E-96-3,T,F,T,T,T,T,T
02-BEMS-0.3,0202-0035,Bemus Creek,Ellery,100 m above rte 430 bridge. parked at mobile station.,42.15372,-79.38167,9,PA-63-13-4-P 122-27,T,F,T,T,T,F,T
02-BEMS-4.4,0202-0035,Bemus Creek,Ellery,walk 500 meters south off hale rd. when you come to coordinates 42.207 / -79.371.,42.202,-79.36799,9,PA-63-13-4-P 122-27,F,F,F,F,F,F,F
08-BENE-0.2,0801-0346,Benedict Creek,Inlet,8 miles east of limekiln lake.,43.67611,-74.70834,5,ONT-19-81-60-3,T,T,T,F,T,T,T
08-BENE-0.8,0801-0346,Benedict Creek,Inlet,100 ft east of Limekiln lake Cedar river rd (not a crossing),43.684827,-74.699969,5,Ont  19- 81,T,,,,,,
05-BENN-0.5,0503-0007,Bennetts Creek,Canisteo,40 m above rte 36 bridge.,42.26543,-77.59466,8,PA-3-57-5-4,T,T,T,T,T,T,T
05-BENN-4.6,0503-0007,Bennetts Creek,Canisteo,rt. 248. 1 mi south of fall creek rd.,42.22197,-77.61391,8,PA-3-57-5-4,T,T,T,T,T,T,T
05-BENN-11.0,0503-0024,Bennetts Creek,Greenwood,30 m above rt 248 bridge.,42.13975,-77.64636,8,PA-3-57-5-4,T,F,T,T,T,T,T
06-BVIL-2.2,0601-0048,Bennettsville Creek,Bainbridge,40 m below rt. 206 bridge.,42.2575,-75.44861,7,SR-139,T,T,T,T,T,T,T
05-BENT-0.4,0501-0026,Bentley Creek,Ashland,100 m above rt 427 bridge.,42.01639,-76.73167,8,PA-3-16,T,F,T,T,T,T,T
14-LBEV-0.4,1403-0062,Benton Brook,Liberty,"10 m above benton hollow rd. bridge


























little beaver kill tributary.",41.85556,-74.78361,3,D-70-20-25- 9,T,F,T,T,T,F,F
01-BERG-1.3,0101-0004,Bergholtz Creek,Wheatfield,10 m above williams rd. bridge.,43.09239,-78.94073,9,ONT-158-8-1,T,F,T,T,T,F,F
12-BETY-0.2,1202-0050,Betty Brook,Blenheim,40 m below cr 43 bridge.,42.489,-74.509,4,H-240-82-104-4,T,T,T,T,T,T,T
14-BETT-0.1,1404-0003,Betty Brook,Stamford,rte 10 bridge; 40 m downstream.,42.34361,-74.73306,4,D-71 (portion 5),T,T,T,T,T,T,T
04-BIDW-1.5,0402-0063,Bidwells Creek,York,10 m upstream of sr 36/main st.,42.833967,-77.89615,8,Ont 117-53,T,T,T,T,T,T,T
06-BIBS-0.3,0602-0131,Big Brook,Lisle,jennings creek rd.,42.40083,-76.02194,7,SR-44-14-33,T,F,T,T,T,F,F
09-BIBK-5.4,0903-0184,Big Brook,Long Lake,on rte 30 at bridge.,44.00278,-74.48027,5,SL-1-P241-27,T,T,T,F,T,T,T
11-BGBK-1.0,1104-0192,Big Brook,Warrensburg,below alden rd. culvert.,43.47167,-73.78361,5,H-391-3,T,F,T,T,T,T,T
12-BIGB-0.2,1201-0218,Big Brook,Western,20 m above rte 46 bridge.,43.32417,-75.35833,6,H-240-263,T,F,T,F,F,F,F
12-BIGW-0.1,1203-0025,Big Brook,Ohio,at haskell rd. bridge.,43.43743,-74.8309,6,H-240-180-78,T,T,T,T,T,T,T
05-BGCK-0.6,0503-0028,Big Creek,Hornellsville,seneca st.,42.353,-77.66016,8,PA-3-57-5-48,T,T,T,T,T,T,T
10-BIGC-0.4,1005-0004,Big Creek,Kingsbury,cr 43 bridge.,43.356393,-73.48707,5,C-134- 4-27,F,F,F,F,F,F,F
10-BIGC-1.7,1005-0004,Big Creek,Hartford,off sr 149.,43.35627,-73.47009,5,C-134- 4-27,F,T,F,F,F,F,F
10-BIGC-6.3,1005-0004,Big Creek,Hartford,70 m west of sr 149.,43.359908,-73.42192,5,C-134- 4-27,T,T,T,T,T,T,T
12-BICK-0.6,1204-0005,Big Creek,Marshall,california rd.,42.9909,-75.42009,6,H-240-223-35,T,F,T,T,T,F,F
09-HOLL-0.4,0902-0042,Big Hollow Brook,Hopkinton,10 m above converse st bridge.,44.70417,-74.72527,6,SLC-32-27,T,F,T,T,T,F,F
14-BHOL-0.1,1404-0026,Big Hollow Brook,Deposit,big hollow rd. dead end. 5 m below foot bridge.,42.06694,-75.41833,4,D-71- 2 thru 13 (selected),T,F,T,F,F,F,F
01-BIND-1.9,0104-0073,Big Indian Creek,Perrysburg,20 m above wardtown rd. bridge.,42.51183,-79.0433,9,E-23-5,T,F,T,T,T,F,F
02-BIGI-0.7,0202-0021,Big Inlet,Chautauqua,at bridge on cr127.,42.268,-79.47599,9,PA-63-13-4-P122-21,T,F,T,T,T,T,T
14-LBIGP-0.0,1403-0084,Big Pond,Andes,Site Condition listed as reference.,42.046799,-74.7239,4,D-70-20-45-P345,F,F,F,F,T,F,F
07-SMON-1.6,0705-0097,Big Salmon Creek,Lansing,150 m upstream from fishing access at end of mill rd. in 2002. sample taken at lake shore rd. 25 m above bridge.,42.55333,-76.53333,7,ONT-66-12-P296-57,T,F,T,T,T,T,T
07-SMON-4.9,0705-0097,Big Salmon Creek,Lansing,above lockerby hill rd. bridge.,42.59306,-76.53416,7,ONT-66-12-P296-57,T,F,T,T,T,T,T
07-SMON-7.6,0705-0097,Big Salmon Creek,Lansing,above salmon creek rd. bridge.,42.62333,-76.53833,7,ONT-66-12-P296-57,T,F,T,T,T,T,T
07-SMON-8.4,0705-0097,Big Salmon Creek,Genoa,above blakely rd.,42.6325,-76.54389,7,ONT-66-12-P296-57,T,F,T,T,T,T,T
07-SMON-11.8,0705-0054,Big Salmon Creek,Genoa,50 m above sr 90 bridge.,42.66861,-76.53777,7,ONT-66-12-P296-57,T,F,T,T,T,F,F
07-SMON-14.3,0705-0054,Big Salmon Creek,Venice,myers rd. bridge.,42.689978,-76.538834,7,ONT-66-12-P296-57,T,F,T,F,F,T,T
07-SMON-18.8,0705-0054,Big Salmon Creek,Venice,walk 700 meters downstresm from cr 43b bridge.,42.733,-76.561,7,ONT-66-12-P296-57,T,F,T,T,T,T,T
07-SMON-21.5,0705-0054,Big Salmon Creek,Scipio,15 m below sherwood rd. bridge.,42.76389,-76.57332,7,ONT-66-12-P296-57,T,F,T,T,T,F,F
01-BSIS-2.0,0104-0013,Big Sister Creek,Evans,20 m below rt. 5 bridge.,42.65706,-79.03608,9,E-2,T,T,T,T,T,T,T
01-BSIS-8.6,0104-0047,Big Sister Creek,Evans,between pontiac and versailles rd. bridge. split in stream.,42.62475,-78.96739,9,E-2,T,T,T,T,T,T,T
01-BSIS-11.4,0104-0047,Big Sister Creek,Evans,10 m below cain rd. bridge.,42.60895,-78.94638,9,E-2,T,F,T,T,T,F,F
04-BSPR-0.2,0402-0027,Big Spring Creek,Wheatland,off spring st.,42.991944,-77.866183,8,Ont 117- 25 (portion 1),F,T,F,F,F,F,F
04-BSPR-0.6,0402-0027,Big Spring Creek,Caledonia,30 m below rr bridge at fish hatchery.,42.98721,-77.86153,8,Ont 117-25,T,F,T,T,T,T,T
07-BGST-0.1,0705-0087,Big Stream,Starkey,at south glenora rd.,42.49,-76.9143,8,Ont  66-12-P369- 93,T,T,T,T,T,T,T
07-BGST-6.1,0705-0087,Big Stream,Barrington,pre-emption rd; 20 m above.,42.52367,-76.99204,8,ONT-66-12-P369-93,T,F,T,T,T,F,F
04-BLOW-0.4,0402-0016,Bigelow Creek,Byron,cockram rd. ; 5 m above bridge.,43.06632,-78.06949,8,ONT-117-19-30,T,T,T,T,T,T,T
04-BLOW-4.6,0402-0016,Bigelow Creek,Stafford,griswold rd. culvert.,43.03504,-78.1109,8,ONT-117-19-30,T,T,T,T,T,T,F
09-BICR-2.6,0906-0027,Birch Creek,Macomb,turner rd; 10 m above swamp at guard rail.,44.47222,-75.55806,6,SL-25-7-2-2,T,F,T,T,T,T,T
13-BRCH-0.5,1307-0037,Birch Creek,Shandaken,20 m above lasher rd. bridge.,42.10778,-74.45138,3,H-171/P848-52,T,F,T,T,T,T,T
13-BRCH-1.5,1307-0037,Birch Creek,Shandaken,off rte 28. above dirt rd. bridge.,42.11917,-74.46056,3,H-171/P848-52,T,F,T,T,T,F,F
13-BRCH-2.3,1307-0037,Birch Creek,Shandaken,30 m above lake st. covered bridge.,42.12611,-74.4714,3,H-171/P848-52,T,T,T,T,T,T,T
13-BRCH-2.7,1307-0037,Birch Creek,Shandaken,5 m below main st. bridge.,42.13,-74.47583,3,H-171/P848-52,T,T,T,T,T,T,T
13-BRCH-4.0,1307-0037,Birch Creek,Shandaken,below birch creek rd. bridge.,42.1474,-74.4779,3,H-171/P848-52,T,F,T,T,T,T,T
14-BIRC-0.8,1401-0119,Birch Ridge Brook,Bethel,800 ft east off swiss hill rd.,41.731732,-74.923095,3,D-53-1- 8,T,F,T,T,T,T,T
02-BIRH-1.4,0201-0037,Birch Run,Allegany,"lower birch run rd.


























culvert


























by the birch run gravel pit.",42.08611,-78.555,9,PA-53-41,T,F,T,T,T,F,F
14-BISC-0.7,1402-0008,Biscuit Brook,Denning,biscuit bk above pigeon bk at frost valley follow blue trail to site.,41.99278,-74.50305,3,D- 1-P58b-83,T,F,T,T,T,T,T
10-BISH-0.6,1005-0064,Bishop Brook,Fort Ann,rte 149. 50 m below bridge. fields on each side.,43.4039,-73.5382,5,C-134- 4-19- 8,T,T,T,T,T,T,T
02-BLBA-0.4,0202-0066,Black Brook,French Creek,conway rd.,42.05833,-79.73194,9,PA-81-10,T,F,T,T,T,F,T
10-BLBR-2.4,1004-0042,Black Brook,Black Brook,150 m below co. rt. 17 bridge.,44.45861,-73.74333,5,C- 25-26,T,F,T,T,T,T,T
11-BLBK-0.1,1104-0191,Black Brook,North Hudson,route 9.,43.98611,-73.71584,5,H-391-53,T,F,T,T,T,F,F
13-BABK-0.1,1310-0022,Black Brook,Nassau,rte 66.,42.51292,-73.50897,4,H-204- 2,T,F,T,T,T,F,F
13-WBABK-2.7,1310-0022,Black Brook,Stephentown,ingalls preserve. horse haven rd.,42.526535,-73.47255,4,H-204- 2,F,F,F,F,F,F,F
14-BLAB-0.1,1401-0032,Black Brook,Lumberland,plank rd; last bridge at mouth near power plant.,41.53139,-74.76417,3,D-10-11,T,F,T,F,F,F,F
14-BLAB-1.7,1401-0032,Black Brook,Forestburgh,60 meters east off plank rd.,41.55053,-74.76079,3,D-10-11,T,F,T,F,F,T,T
01-BLKE-0.1,0102-0004,Black Creek,Amherst,smith rd. bridge.,43.05013,-78.7118,9,ONT-158-12-6-3,T,F,T,T,T,T,T
03-BLCN-0.6,0301-0019,Black Creek,Parma,sr 261.,43.273739,-77.7504,8,Ont 123-P154- 1,F,F,F,T,T,F,F
04-BLAK-5.5,0402-0033,Black Creek,Chili,300 m below rt. 386 bridge (scottsville chili rd.).,43.08984,-77.75697,8,ONT-117-19,T,F,T,T,T,F,F
04-BLAK-9.9,0402-0033,Black Creek,Chili,200 m below rt. 33a bridge (chili riga center rd.).,43.0845,-77.81409,8,ONT-117-19,T,F,T,T,T,F,F
04-BLAK-14.7,0402-0033,Black Creek,Riga,80 m below burnt mill rd. bridge.,43.0927,-77.86427,8,ONT-117-19,T,T,T,T,T,T,T
04-BLAK-30.1,0402-0028,Black Creek,Byron,200 m above rt. 237 bridge.,43.08883,-78.06738,8,ONT-117-19,T,F,T,T,T,T,T
04-BLAK-30.7,0402-0028,Black Creek,Byron,trestle park.,43.082,-78.0685,8,ONT-117-19,T,F,F,T,T,T,T
04-BLAK-30.8,0402-0028,Black Creek,Byron,byron elba rd.,43.079958,-78.068642,8,Ont 117- 19,F,T,F,F,F,F,F
04-BLAK-32.0,0402-0048,Black Creek,Byron,50 m above cockram rd. bridge.,43.06578,-78.06517,8,ONT-117-19,T,T,T,T,T,T,T
04-BLAK-33.7,0402-0048,Black Creek,Byron,at walkers corner rd.,43.048219,-78.06941,8,Ont 117- 19,F,T,F,F,F,F,F
04-BLAK-34.9,0402-0048,Black Creek,Stafford,griswold rd. crossing.,43.0341,-78.07539,8,ONT-117-19,T,T,T,T,T,T,T
04-BLAK-36.4,0402-0048,Black Creek,Stafford,upstream of thruway at end of dead end (morganville rd.) walk down gated path.,43.01557,-78.08019,8,ONT-117-19,T,F,F,T,T,T,T
04-BLAK-37.3,0402-0048,Black Creek,Stafford,gorge site. walk down dry steep stream bed to below falls.,43.00573,-78.075,8,ONT-117-19,T,F,F,T,T,T,T
04-BLAK-37.4,0402-0048,Black Creek,Stafford,"upstream of gorge at randal rd. 


























chemistry only.",43.00428,-78.0737,8,ONT-117-19,T,F,F,F,F,T,T
04-BLAK-46.2,0402-0048,Black Creek,Bethany,upstream of mclernon rd. crossing. cafo site.,42.9244,-78.1178,8,ONT-117-19,T,F,F,T,T,T,T
04-BLAK-48.2,0402-0048,Black Creek,Bethany,sr 20 crossing.,42.904,-78.1229,8,ONT-117-19,T,F,F,T,T,T,T
04-BLAK-50.2,0402-0048,Black Creek,Bethany,at bottom of county park.,42.8773,-78.118795,8,ONT-117-19,T,F,F,T,T,T,T
04-BLCB-1.8,0403-0064,Black Creek,Belfast,300 m down lake rd. bridge.,42.31724,-78.13034,9,ONT-117-148,T,F,T,T,T,T,T
04-BLCB-2.0,0403-0064,Black Creek,Belfast,lake rd. bridge.,42.31607,-78.13316,9,Ont 117-148,F,T,F,F,F,F,F
04-BLCE-1.6,0403-0067,Black Creek,West Almond,cr 16 bridge.,42.32186,-77.94265,9,ONT-117-155-9,T,F,T,F,F,F,F
04-BLCE-5.2,0403-0067,Black Creek,Birdsall,75 m upstream of cr 16 (dalton rd) bridge.,42.36841,-77.92116,9,ONT-117-155-9,T,T,T,F,T,T,T
04-WBLAK-50.2,0402-0048,Black Creek,Bethany,downstream of bridge b-d connector trail genesee cty. park and forest.,42.878549,-78.1186,8,ONT-117-19,F,F,F,F,F,F,F
04-WBLCE-4.2,0403-0067,Black Creek,Birdsall,cr 16 (dalton rd). west off rd.,42.355,-77.9198,9,Ont-117-155-9,F,F,F,F,F,F,F
07-BLAN-0.4,0703-0056,Black Creek,Constantia,"center st. bridge 


























2 big culverts


























small wooden bridge


























30 m above.",43.23611,-75.88528,7,ONT-66-11-P26-15,T,F,T,T,T,F,F
07-BLKO-0.6,0701-0024,Black Creek,Volney,co rte 57 bridge; 5 m downstream.,43.36889,-76.4261,7,ONT-66-2,T,F,T,T,T,F,F
07-BLKO-7.7,0701-0024,Black Creek,Volney,sr 176.,43.405335,-76.400899,7,Ont  66- 2,F,F,F,T,T,F,F
07-WBLAN-0.1,0703-0056,Black Creek,Constantia,downstream of bridge st. dam.,43.23247,-75.88213,7,ONT-66-11-P26-15,F,F,F,F,F,F,F
08-BLAC-0.6,0801-0171,Black Creek,New Bremen,below rt. 126 bridge.,43.89056,-75.39806,6,ONT-19-40-3,T,F,T,T,T,F,F
08-BLAC-2.5,0801-0171,Black Creek,New Bremen,20 m above farney rd.,43.87534,-75.37319,6,Ont  19- 40- 3,F,F,F,F,F,F,F
08-BLAC-7.6,0801-0171,Black Creek,New Bremen,300 meters downstream of new rd.,43.850565,-75.313486,6,ONT-19-40-3,T,F,T,T,T,T,T
09-BLAH-4.2,0906-0061,Black Creek,Hammond,at cr 3.,44.42056,-75.69417,6,SL-25-7-8,T,T,T,T,T,T,T
09-BLAH-9.1,0906-0061,Black Creek,Hammond,at south hammond rd. bridge.,44.39335,-75.72928,6,SL-25-  7/P1- 8,F,T,F,F,F,F,F
09-BLAP-0.8,0906-0045,Black Creek,Philadelphia,at garden of eden rd. bridge.,44.148611,-75.700555,6,SL-25-  7/P1- 3-30,F,T,F,F,F,F,F
09-BLAP-1.8,0906-0045,Black Creek,Philadelphia,cr 29 above belile rd.,44.13639,-75.70722,6,SL-25-7-3-30,T,F,T,T,T,T,T
09-BLAP-17.4,0906-0046,Black Creek,Wilna,cr 29 belile rd.,44.0512,-75.55547,6,SL-25-7-3-30,T,F,T,T,T,T,T
11-BLKC-1.8,1103-0017,Black Creek,Salem,cemetery rd. bridge; 30 m upstream.,43.16139,-73.36916,5,H-301-20,T,F,T,T,T,T,T
12-BLCR-17.0,1203-0072,Black Creek,Salisbury,1.75 miles west off jerseyfield rd.,43.268501,-74.804199,6,H-240-180- P799-19,F,F,F,F,F,F,F
12-BLCR-19.3,1203-0072,Black Creek,Salisbury,At Jerseyfield Rd. Low Gradient. 3.8 sq mi drainage.,43.26541,-74.778108,6,H-240-180- P799-19,T,T,T,F,F,T,T
13-BLKH-1.2,1301-0202,Black Creek,Esopus,100 m above rte 9w bridge.,41.81805,-73.96444,3,H-128,T,T,T,T,T,F,F
13-BLKH-8.2,1301-0203,Black Creek,Lloyd,at riverside rd. bridge.,41.744376,-73.985304,3,H-128,T,T,T,T,T,T,T
13-BLKK-1.1,1311-0024,Black Creek,Guilderland,10 m below weaver rd. bridge.,42.71081,-73.98769,4,H-221- 4-P270- 1- 1,T,T,T,T,T,T,F
13-WBLKK-8.8,1311-0024,Black Creek,Guilderland,cr 202.,42.6727,-73.98259,4,H-221- 4-P270- 1- 1,F,F,F,F,F,F,F
13-WBLKK-8.9,1311-0024,Black Creek,Guilderland,cr 202. meadowdale rd.,42.673247,-73.981825,4,H-221- 4-P270- 1- 1,F,F,F,F,F,F,F
07-BLCK-2.8,0704-0033,Black Creek,Walworth,Access from end of Baker road. Site upstream of wallworth WWTP.,43.12919,-77.312693,8,Ont  66-12-52-23-24,T,,T,,,T,T
13-BLMD-3.0,1303-0025,Black Meadow Creek,Chester,at culvert beneath west ave and immediately prior to route 17.,41.35787,-74.28707,3,H- 89-20,T,F,F,T,T,T,F
08-BLCK-1.2,0801-0250,Black River,Brownville,rt.180 bridge.,44.00566,-76.048717,6,ONT-19,T,F,T,T,T,F,T
08-BLCK-1.4,0801-0250,Black River,Hounsfield,sr 180 bridge.,44.00444,-76.04527,6,Ont  19 (portion 1),F,T,F,F,F,F,F
08-BLCK-4.8,0801-0250,Black River,Hounsfield,bridge street bridge.,44.00056,-75.98194,6,Ont  19 (portion 1),F,T,F,F,F,F,F
08-BLCK-8.0,0801-0250,Black River,Watertown,van duzee st. bridge.,43.98472,-75.925,6,ONT-19,T,T,T,T,T,F,F
08-BLCK-30.0,0801-0190,Black River,Champion,0.9 mi. below new stp.,43.99365,-75.631952,6,ONT-19,T,F,T,T,T,F,T
08-BLCK-47.6,0801-0251,Black River,New Bremen,200 m below rt. 26a (rt. 812) bridge.,43.82556,-75.46528,6,ONT-19,T,F,T,T,T,F,T
08-BLCK-47.8,0801-0251,Black River,Lowville,at sr 812 bridge.,43.822778,-75.463611,6,Ont  19 (portion 4),F,T,F,F,F,F,F
08-BLCK-53.4,0801-0199,Black River,Lowville,no. 4 rd. fishing access. off cr 22.,43.77489,-75.44699,6,ONT-19,T,F,T,T,T,F,F
08-BLCK-64.9,0801-0199,Black River,Greig,10 m below greig rd. bridge (boat launch).,43.71,-75.39971,6,ONT-19,T,F,T,T,T,F,F
08-BLCK-69.6,0801-0199,Black River,Turin,10 m below burdicks crossing rd. bridge.,43.67694,-75.36195,6,ONT-19,T,F,T,T,T,F,T
08-BLCK-73.6,0801-0199,Black River,West Turin,100 m below lagoon discharge. 5 m above island.,43.6303,-75.36389,6,ONT-19,F,F,F,F,F,F,F
08-BLCK-73.8,0801-0199,Black River,West Turin,100 m above coffer dam. 150 m above lf discharge.,43.6275,-75.36389,6,ONT-19,T,F,T,F,F,F,F
08-BLCK-76.5,0801-0038,Black River,Leyden,120 m above davis rd. bridge.,43.59583,-75.34611,6,ONT-19,T,F,T,T,T,F,T
08-BLCK-84.5,0801-0038,Black River,Boonville,5 m above moose river rd. bridge.,43.51167,-75.30666,6,ONT-19,T,T,T,T,T,F,F
08-BLCK-88.1,0801-0038,Black River,Boonville,30 m above hawkinsville rd. bridge.,43.49389,-75.27583,6,ONT-19,T,T,T,T,T,T,T
08-BLCK-105.4,0801-0237,Black River,Forestport,5 m below enos rd./bellingertown rd.,43.41083,-75.09666,6,ONT-19,T,T,T,T,T,T,T
08-LRNC_04-74.9,0801-0038,Black River,West Turin,access at yard of paper mill. multiplates are upstream on right shore after bridge.,43.61417,-75.35916,6,ONT-19,F,F,F,F,F,F,F
08-LRNC_70-1.0,0801-0250,Black River,Hounsfield,off rte 180 at dexter town launch.,44.00392,-76.05218,6,ONT-19,F,F,F,T,T,F,F
10-BLAR-1.1,1004-0082,Black River,Elizabethtown,cr 8.,44.23422,-73.51052,5,C- 48-26,T,T,T,T,T,T,T
13-BLAG-0.2,1310-0043,Black River,Stephentown,5 m below cr 26 bridge.,42.53722,-73.40278,4,H-204- 2-36,T,F,T,F,F,F,F
13-BLAG-3.1,1310-0043,Black River,Stephentown,black river rd. bridge.,42.57139,-73.40892,4,H-204- 2-36,F,T,F,F,F,F,F
13-BLAG-3.4,1310-0043,Black River,Stephentown,upstream of newton rd.,42.575,-73.408,4,H-204- 2-36,T,F,T,T,T,T,T
13-WBLAG-0.4,1310-0043,Black River,Stephentown,morris property.,42.540054,-73.40334,4,H-204- 2-36,F,F,F,F,F,F,F
13-WBLAG-7.6,1310-0043,Black River,Berlin,capital district state wildlife management area. off miller rd.,42.631938,-73.413562,4,H-204- 2-36,F,F,F,F,F,F,F
08-BLCK-30.4,0801-0190,Black River,Champion,0.5 mi below new stp,43.98795,-75.629721,6,Ont 19 (portion 3),T,,T,,,T,T
02-BLHL-0.5,0201-0050,Blakesly Hollow,Olean,at the blakes lee hollow rd. bridge.,42.112,-78.4353,9,PA-53-54-2,T,T,T,T,T,T,T
09-BLCH-0.2,0906-0056,Blanchard Creek,Diana,20 m above state highway 3.,44.07005,-75.48747,6,SL-25-  7/P1- 3-63,F,F,F,F,F,F,F
01-BLAS-0.1,0104-0038,Blasdell Creek,Hamburg,50 m upstream of lake erie; woodlawn beach state park.,42.79824,-78.85486,9,E-2a,T,T,T,T,T,T,T
17-BLND-0.3,1702-0130,Blind Brook,Rye,just downstream from oakland beack ave.,40.9607,-73.68987,3,(MW3.4)  LIS-11,T,F,F,F,F,T,T
17-BLND-3.4,1702-0130,Blind Brook,Rye,150 m above gaging station; at theodore fremd st.,40.983283,-73.68625,3,(MW3.4)  LIS-11,T,T,T,T,T,T,T
17-BLND-5.7,1702-0130,Blind Brook,Rye,westchester ave;at harrison ex pk;100 m below brdge.,41.00917,-73.69417,3,(MW3.4)  LIS-11,T,F,T,T,T,F,F
17-BLND-6.8,1702-0130,Blind Brook,Harrison,lincoln rd; 150 m south of hutchinson river pkwy.,41.02222,-73.69499,3,(MW3.4)  LIS-11,T,F,T,T,T,T,T
17-BLND-8.2,1702-0130,Blind Brook,Rye,anderson hill rd.,41.04,-73.69019,3,(MW3.4)  LIS-11,T,F,T,T,T,T,T
17-BLND-9.8,1702-0130,Blind Brook,Harrison,just upstream of west rd. this is blind bk not unnamed stream.,41.05494,-73.70377,3,(MW3.4)  LIS-11,T,F,T,T,T,T,T
03-BLSC-1.7,0302-0059,Blind Sodus Creek,Wolcott,Crossing on King Rd.,43.3156509,-76.7234573,8,Ont  75/P77 ..,T,T,T,F,F,T,T
13-BLOK-0.3,1311-0002,Block House Creek,Guilderland,5 m above culvert under state farm rd.,42.68555,-73.90165,4,H-221- 4 (portion 2),T,F,T,T,T,F,F
07-BLDY-0.1,0702-0006,Bloody Brook,Salina,2 m below onondaga lake parkway (rt. 370) bridge.,43.09639,-76.20167,7,ONT-66-12-12-P154-2,T,F,T,T,T,T,T
07-BLDY-0.2,0702-0006,Bloody Brook,Salina,south of liverpool parkway bridge.,43.0973,-76.2016,7,ONT-66-12-12-P154-2,F,F,F,F,F,F,F
13-LBLHN-0.0,1302-0144,Blue Heron Lake,Pound Ridge,"Access type is Private. need lake resident access, but very likely (contacts available).",41.191601,-73.592201,3,H- 31-P44-36-11-P122a,F,F,F,F,T,F,F
09-BOAR-0.8,0902-0025,Boardman Brook,Chateaugay,foundry rd. off rt. 11.,44.92722,-74.07195,5,SLC-21-2-2,T,F,T,T,T,F,F
17-BODN-0.2,1701-0192,Bodine Creek,New York,40 m below culvert under richmond terrace.,40.6375,-74.12832,2,(MW1.2) SI- 9 thru 16,T,F,T,T,T,T,T
17-BODN-1.0,1701-0192,Bodine Creek,New York,20 m above forest ave. bridge; in clove lakes park.,40.6275,-74.12305,2,(MW1.2) SI- 9 thru 16,T,F,T,T,T,T,T
16-BOGH-0.3,1601-0010,Bog Hollow Brook,Dover,brasher rd. bridge.,41.7548,-73.51629,3,Conn 12 thru 18 (selected),F,F,F,F,F,F,F
11-BGMD-2.9,1101-0070,Bog Meadow Brook,Wilton,Upstream Louden road.,43.104752,-73.726856,5,H-299-P27-13- 1-P30-3,T,,T,,,T,T
09-BOGR-0.1,0903-0128,Bog River,Piercefield,rte 421. near spillway pulloff.,44.12861,-74.54556,6,SL-1-P109-11,T,F,T,T,T,F,F
09-BOLA-1.3,0905-0098,Boland Creek,De Kalb,10 m above main st. bridge.,44.4125,-75.39611,6,SL-25-29,T,F,T,T,T,F,F
11-BOLT-0.1,1104-0201,Bolster Creek,Chester,at bridge on route 65/riverside drive.,43.654,-73.806,5,H-391-33-5,T,F,T,T,T,T,T
02-BONE-1.9,0201-0027,Bone Run,South Valley,50 m above bone run rd. (co. rte 33).,42.05199,-78.97876,9,PA-53-4,T,F,T,T,T,F,F
12-BONN-0.1,1201-0056,Bonny Brook,Frankfort,20 m below old cr 5s.,43.05556,-75.09361,6,H-249-195,T,F,T,T,T,F,F
10-BOQT-2.6,1004-0037,Boquet River,Wilsboro,n. main st./rte 22 bridge.,44.36389,-73.390881,5,C- 48,F,T,F,F,F,F,F
10-BOQT-2.8,1004-0037,Boquet River,Willsboro,500 m above rt. 22 bridge.,44.361742,-73.391577,5,C- 48,T,T,T,T,T,T,T
10-BOQT-10.8,1004-0039,Boquet River,Essex,upstream of whallons bay rd.,44.264529,-73.4012,5,C- 48,T,T,T,T,T,T,T
10-BOQT-13.7,1004-0039,Boquet River,Westport,below mariam forge rd. bridge.,44.24111,-73.43,5,C- 48,T,F,T,T,T,F,F
10-BOQT-15.0,1004-0039,Boquet River,Westport,10 m below morrison rd. bridge.,44.22528,-73.44028,5,C- 48,T,F,T,T,T,T,T
10-BOQT-23.2,1004-0046,Boquet River,Lewis,lee bridge rd.,44.24826,-73.52014,5,C- 48,T,T,T,T,T,T,T
10-BOQT-28.5,1004-0046,Boquet River,Elizabethtown,150 m above co rt. 8a bridge.,44.22003,-73.58552,5,C- 48,T,F,T,T,T,T,T
10-BOQT-28.6,1004-0046,Boquet River,Elizabethtown,above cr 8 bridge.,44.21778,-73.58556,5,C- 48,F,T,F,F,F,F,F
10-BOQT-37.2,1004-0081,Boquet River,Elizabethtown,above gilligan rd. bridge.,44.14694,-73.62695,5,C- 48,T,F,T,T,T,F,F
10-BOQT-41.7,1004-0081,Boquet River,Elizabethtown,off route 9. near route 73 junction.,44.10583,-73.68584,5,C- 48,T,F,T,T,T,F,F
11-BORE-1.8,1104-0261,Boreas River,Minerva,20 m above northwoods club rd. bridge.,43.81667,-74.06111,5,H-438,T,F,T,T,T,T,T
01-BOUR-0.4,0105-0024,Bourne Creek,Westfield,rte 5 bridge.,42.35706,-79.5515,9,E-61,T,T,T,T,T,T,T
01-BOWE-5.2,0102-0036,Bowen Creek,Alexander,pike rd. bridge.,42.95635,-78.25796,8,ONT-158-12-28,T,F,T,T,T,T,T
13-BOWR-0.8,1309-0011,Bowery Creek,Durham,mullens rd.,42.35114,-74.07278,4,H-193,T,F,T,T,T,F,F
13-WBOWR-1.8,1309-0011,Bowery Creek,Durham,above cr 20.,42.3397,-74.0784,4,H-193,F,F,F,F,F,F,F
06-BOWM-3.6,0602-0144,Bowman Creek,Smithville,end of livingston rd.,42.42639,-75.66639,7,SR-44-39,T,F,T,T,T,F,F
02-BOYC-0.9,0201-0052,Boyce Run,Franklinville,just south off bryant hill rd.,42.337,-78.48,9,PA-53-54-10-23,T,F,T,T,T,T,T
13-BOZN-1.4,1311-0017,Bozen Kill,Guilderland,20 m below rt. 158 bridge.,42.72278,-73.99277,4,H-221- 4-270- 1,T,F,T,T,T,F,F
13-BOZN-3.5,1311-0017,Bozen Kill,Guilderland,upstream of westfall rd.,42.7136,-74.0465,4,H-221- 4-270- 1,F,F,F,T,T,F,F
06-BRAC-0.2,0602-0046,Brackel Creek,Cincinnatus,cr 166 bridge at mcfarland rd.,42.53,-75.89861,7,SR-44-14-27-34,T,F,T,T,T,F,F
08-ADKS_34-0.2,0801-0346,Bradley Brook,Arietta,50 m above moose river rd.,43.7025,-74.59638,5,ONT-19-81,T,F,F,T,T,F,F
08-BRDL-0.1,0801-0346,Bradley Brook,Arietta,15 m above bridge. sign indicates bradley bk.,43.70083,-74.59639,5,ONT-19-81-71,T,F,T,F,F,F,F
06-BALE-0.2,0603-0045,Bradley Creek,Union,30 m upstream of bradley creek rd. bridge.,42.14889,-76.06276,7,SR-28-6,T,F,T,T,T,F,F
04-BADN-2.0,0404-0020,Bradner Creek,Groveland,20 m below rte 259 bridge.,42.66107,-77.78068,8,ONT-117-66-8-2-1,T,F,T,T,T,F,F
04-BADN-8.7,0404-0020,Bradner Creek,West Sparta,off Woodsville rd.,42.580246,-77.738438,8,Ont 117- 66- 8- 2,T,T,T,T,T,T,T
12-BRAH-0.1,1202-0041,Bradt Hollow Creek,Berne,20 m above confl. with fox creek.,42.62167,-74.1711,4,H-240-82-67-23a,T,F,T,T,T,F,F
12-BRAH-0.9,1202-0041,Bradt Hollow Creek,Berne,below cr 9 bridge.,42.61472,-74.18166,4,H-240-82-67-23a,T,F,T,T,T,F,F
07-BRDY-1.2,0703-0032,Brady Brook,Verona,"sr 46 bridge (just north of fox st.)


























just below rt 46.",43.12806,-75.67278,6,ONT-66-11-P26-25-1,T,F,T,T,T,F,F
13-BRAD-1.1,1302-0057,Brady Brook,Pawling,100 m above rte. 22.,41.53222,-73.58417,3,H- 31-P44-24 (portion 6),T,F,T,T,T,F,F
09-BRAB-1.1,0902-0001,Branch Brook,Malone,20 m above duane rd. (cr 25) bridge.,44.83139,-74.28111,5,SLC-29-6,T,F,T,T,T,F,F
09-BRND-2.5,0901-0013,Brandy Brook,Waddington,franklin rd. cr 44.,44.84972,-75.16417,6,SL-11,T,T,T,T,T,T,T
10-BRAY-1.5,1002-0018,Brandy Brook,Altona,jerusalem rd.,44.806416,-73.724275,5,C-  3 (portion 5),T,T,T,T,T,T,T
09-BRND-0.5,0901-0013,Brandy Brook,Waddington,Downstream state highway 37 bridge and approximately 0.5 miles from mouth.,44.874496,-75.160378,6,SL-11,T,,T,,,,T
09-BRND-1.6,0901-0013,Brandy Brook,Waddington,Multiplate site approximately 1.5 miles from mouth.,44.860545,-75.161246,6,SL-11,T,,T,,,,T
12-SCHE-0.6,,Brandywine Creek,Schenectady,off i-890. between brd.way and michigan ave exits.,42.80067,-73.94111,4,H-240-21 thru 28,T,F,T,T,T,F,F
04-BRMR-1.7,0403-0070,Brimmer Brook,Wellsville,rte 419 bridge 50 m upstream.,42.12443,-77.98993,9,ONT-117-180,T,F,T,F,F,T,T
12-BRIM-0.5,1201-0128,Brimstone Creek,Canajoharie,west ames rd. bridge.,42.83972,-74.61,4,H-240-112-14,T,T,T,T,T,T,T
12-BRIM-2.2,1201-0128,Brimstone Creek,Canajoharie,50 m below rt. 10 bridge.,42.8225,-74.59306,4,H-240-112-14,T,F,T,T,T,F,F
12-BRIM-3.6,1201-0128,Brimstone Creek,Sharon,30 m above greene rd. culvert.,42.80695,-74.60889,4,H-240-112-14,T,F,T,T,T,F,F
12-BRIM-4.2,1201-0128,Brimstone Creek,Sharon,200 m above stp discharge.,42.80083,-74.6161,4,H-240-112-14,T,F,T,T,T,F,F
12-BRIM-4.4,1201-0128,Brimstone Creek,Sharon,100 m above rt. 10 bridge; .25 mi. above stp.,42.79944,-74.61723,4,H-240-112-14,T,F,T,T,T,F,F
14-BRIS-2.0,1401-0118,Briscoe Lake Outlet,Bethel,huff rd. bridge.,41.77056,-74.90471,3,D-53-1,T,T,T,T,T,T,T
13-BVRD-0.1,1302-0059,Broad Brook,Bedford,30 m above confluence with beaver dam brook.,41.2475,-73.67083,3,H- 31-P44-36,T,F,T,T,T,F,F
13-BDHW-0.1,1307-0007,Broadstreet Hollow,Shandaken,adjacent (ds) of old brd.street hollow bmp-control site.,42.112642,-74.35849,3,H-171 (portion 4),T,F,T,T,T,T,T
03-BROK-2.0,0301-0028,Brockport Creek,Clarkson,co. rte 18 bridge; 20 m upstream.,43.2832,-77.83455,8,ONT-125-2,T,F,T,T,T,F,F
03-BROK-4.7,0301-0028,Brockport Creek,Clarkson,0.2 mi us of Lawton Rd,43.2610855,-77.8959198,8,Ont 125- 2,T,T,T,F,F,T,T
02-STRW-1.1,0202-0005,Broken Straw Creek,Clymer,knowltown rd; 50 m upstream.,42.01023,-79.617,9,PA-77,T,F,T,T,T,F,F
02-STRW-7.3,0202-0005,Broken Straw Creek,Clymer,nazareth rd. bridge.,42.014612,-79.537887,9,Pa-77,F,F,F,T,T,F,T
02-STRW-5.0,0202-0005,Brokenstraw Creek,Clymer,"Brokenstraw Creek; possible low gradient or marsh, 200ft off of rd (cafisch rd-looks like it's a dirt road)",42.000909,-79.565465,9,Pa-77,T,,T,,,T,T
17-BRNX-2.8,1702-0106,Bronx River,New York,immediately downstream of 182nd st. dam in tail race.,40.843223,-73.87668,2,(MW2.4)  ER-3,T,F,T,T,T,T,T
17-BRNX-5.6,1702-0106,Bronx River,New York,150 m above east gun hill rd. bridge.,40.88,-73.8686,2,(MW2.4)  ER-3,T,T,T,T,T,T,T
17-BRNX-9.2,1702-0107,Bronx River,Yonkers,sherwood ave.,40.915,-73.849,3,(MW2.4)  ER-3,T,F,T,T,T,T,T
17-BRNX-12.3,1702-0107,Bronx River,Yonkers,bridge above crestview station.,40.95944,-73.821995,3,(MW2.4)  ER-3,T,T,T,T,T,T,T
17-BRNX-17.3,1702-0107,Bronx River,White Plains,100 m below bronx river parkway bridge.,41.02417,-73.78306,3,(MW2.4)  ER-3,T,T,T,T,T,T,T
06-WSEGO-0.1,0601-0179,Brookwood Point Stream,Otsego,200 feet from confluence with otsego lake.,42.7268,-74.91845,4,SR-P404,F,F,F,F,F,F,F
17-BRWN-0.9,1701-0097,Brown Creek,Islip,20 m below aldrich st. culvert.,40.74611,-73.07694,1,(MW7.5)  AO-GSB-189,T,F,T,T,T,T,T
02-BROW-0.7,0202-0061,Brownell Branch,Clymer,"co. rt 8


























nazareth rd. bridge.",42.025,-79.595,9,PA-77-2,T,F,T,T,T,F,F
11-BROB-0.3,1104-0278,Browns Brook,Indian Lake,rte. 12/cedar river rd. bridge.,43.783,-74.427,5,H-469,T,F,T,T,T,T,T
04-BRON-3.2,0402-0039,Browns Creek,York,sr 36 bridge.,42.87573,-77.88352,8,ONT-117-49,T,F,T,T,T,T,T
04-BRON-4.7,0402-0039,Browns Creek,York,350 m upstream of limerick rd.,42.875885,-77.910178,8,Ont 117-26 thru 69,T,F,T,T,T,T,T
03-BRSH-4.6,0301-0030,Brush Creek,Hamlin,ny 260/walker lake ontario Rd.,43.3275986,-77.8588409,8,Ont 126 thru 129,T,F,T,F,F,T,T
09-BCKB-0.6,0904-0034,Buck Brook,Clare,white rd. hike to creek from rd. over barbed wire fence. cows.,44.43864,-75.04945,6,SL-2-48-4,T,F,T,T,T,T,T
14-BUCB-0.6,1401-0126,Buck Brook,Callicoon,rte 95 bridge.,41.81083,-74.99028,3,D-53-2,T,F,T,F,F,F,F
08-BUCC-0.1,0801-0207,Buck Creek,Inlet,access across from 7th lake boat launch site is upstream about 200 m next to usgs gaging station.,43.7389,-74.7222,5,ONT-19-81-18-P782d-10-P787a-4,T,F,T,T,T,T,T
04-BUCK-2.0,0404-0014,Buck Run Creek,Mount Morris,rte. 36; 50yds above bridge.,42.71334,-77.86745,8,ONT-117-66-1-1,T,T,T,T,T,T,T
13-LBUCK-0.0,,Buckingham Lake,Albany,off berkshire blvd.,42.663725,-73.806324,4,,F,F,F,F,T,F,F
02-BKTH-0.1,0201-0027,Bucktooth Run,Salamanca,"10 m above


























jimmerman rd. br.",42.16222,-78.77361,9,PA-53-20,T,F,T,T,T,F,F
01-BUFC-2.2,0103-0003,Buffalo Creek,West Seneca,40 m below rt. 277 bridge at usgs gaging station.,42.85474,-78.75507,9,E-1,T,T,T,T,T,T,T
01-BUFC-7.3,0103-0003,Buffalo Creek,Elma,at knabb rd. bridge.,42.84521,-78.67744,9,E-1,T,F,T,F,F,F,F
01-BUFC-21.2,0103-0004,Buffalo Creek,Wales,50 m above rte 20a bridge.,42.76775,-78.53103,9,E-1,T,F,T,T,T,T,T
01-BUFC-37.8,0103-0004,Buffalo Creek,Java,100 m off cr 395.,42.64,-78.462,9,Ont 158..E- 1*,T,T,T,T,T,T,T
01-WBUFC-2.2,0103-0003,Buffalo Creek,West Seneca,40 m below rt. 277 bridge at usgs gaging station.,42.854476,-78.75511,9,E-1,F,F,F,F,F,F,F
01-WBUFC-27.1,0103-0004,Buffalo Creek,Wales,downstream of centerline rd. (cr 175a) bridge.,42.736997,-78.479227,9,Ont 158..E-1,F,F,F,F,F,F,F
01-BUFF-0.1,0104-0033,Buffalo River,Buffalo,near mouth. at coast guard station. red buoy 4.,42.878,-78.88699,9,E,T,F,T,F,F,F,F
01-BUFF-1.7,0103-0001,Buffalo River,Buffalo,below ohio st. bridge.,42.86194,-78.86787,9,E-1,T,T,T,T,T,F,T
01-BUFF-5.9,0103-0001,Buffalo River,Buffalo,bailey ave bridge.,42.86198,-78.8251,9,E-1,T,F,T,F,F,F,F
05-BULK-0.3,0501-0035,Bulkley Creek,Veteran,20 m above bush rd. bridge.,42.20931,-76.7628,8,PA-3-28-13-6,T,F,T,T,T,F,F
05-BULK-1.8,0501-0035,Bulkley Creek,Veteran,,42.223078,-76.745444,8,Pa  3-28-13,T,T,T,F,F,T,T
01-BULL-1.5,0102-0026,Bull Creek,Wheatfield,just below townline rd. bridge.,43.06575,-78.82275,9,ONT-158-12-3,T,F,T,T,T,F,F
09-BULC-0.4,0904-0023,Bullock Creek,Russell,450 m nw off cr 24; sandy.,44.380737,-75.18925,6,SL-2-25-2,T,F,T,T,T,F,T
12-BUNN-2.4,1201-0108,Bunn Creek,Amsterdam,5 m below cr 15 bridge.,42.97139,-74.18166,4,H-240-69-1,T,F,T,T,T,T,T
17-BURL-0.4,1702-0120,Burling Brook,New Rochelle,50 m downstream of mt. tom rd; off hillcrest dr.,40.8925,-73.79222,3,(MW3.2)  LIS- 4,T,F,T,T,T,T,T
08-BURN-3.1,0801-0221,Burnt Creek,Watson,at end of private rd. of rf yousey and ho schaats. off number four rd.,43.82947,-75.25346,6,ONT-19-57-7,T,F,T,T,T,F,F
10-BURP-3.7,1004-0079,Burpee Brook,Lewis,cr 10 to denton rd. to west rd.,44.25561,-73.59038,5,C- 48- 6-10,F,F,F,F,F,F,F
16-BURT-2.2,1601-0015,Burton Brook,Dover,20 m upstream of cr 21 bridge.,41.64389,-73.59142,3,Conn 15- 4,T,F,F,T,T,F,F
13-BUSK-0.2,1307-0029,Bush Kill,Olive,rte 28a; second bridge heading towards cr 42.,41.97043,-74.27739,3,H-171/P848- 5,T,T,T,T,T,T,F
13-BUSK-3.0,1307-0029,Bush Kill,Olive,cr 42. watson hollow rd.,41.94952,-74.3192,3,H-171/P848- 5,T,F,T,T,T,T,T
14-BKIL-0.1,1402-0042,Bush Kill,Forestburgh,off rte 49. burns rd. bridge; 5 m upstream.,41.50555,-74.64861,3,D- 1-22,T,F,T,F,F,F,F
14-BSKL-1.3,1401-0027,Bush Kill,Deerpark,cr42 30 m above bridge at outlet of small pond.,41.46797,-74.72916,3,D-10- 5,T,F,T,T,T,T,T
14-BUSH-0.6,1403-0100,Bush Kill,Middletown,off rte 28 east of arkville at debari lane bridge.,42.15111,-74.6011,4,D-70-80,T,F,T,T,T,T,T
14-BUSH-2.9,1403-0100,Bush Kill,Middletown,off old rt 28.,42.1599,-74.55974,4,D-70-80,T,F,T,T,T,T,T
13-BSFD-0.2,1301-0079,Bushfield Creek,Newburgh,algonquin co park. not far dwnstrm of impoundment.,41.522366,-74.057197,3,H- 94,T,F,F,T,T,T,F
13-BSFD-0.5,1301-0079,Bushfield Creek,Newburgh,upstream of algonquin impoundment; near innis ave.,41.522888,-74.063004,3,H- 94,T,F,F,T,T,T,F
13-BSFD-10.0,1301-0079,Bushfield Creek,Plattekill,downstream of sr 32.,41.627338,-74.092239,3,H- 94,T,F,F,T,T,T,F
13-BSNL-0.3,1307-0036,Bushnellsville Creek,Shandaken,0.3 miles upstream of upper esopus creek at usgs csg (right bank).,42.1216,-74.3994,3,H-171/P848-50,T,F,T,T,T,T,T
07-BUTL-3.5,0701-0049,Butler Creek,Butler,at bridge on cr 275.,43.131,-76.75499,8,ONT-66-12-50-P225-2,T,F,T,T,T,T,T
06-BUTS-0.3,0603-0024,Butson Creek,Barton,50 m below rte 17c bridge.,42.04445,-76.44722,7,SR-1-5,T,F,T,T,T,F,F
09-LBUTF-0.0,0906-0020,Butterfield Lake,Alexandria,,44.30996,-75.78176,6,SL-25-7-8-P54,F,F,F,F,T,F,F
03-BUFY-1.8,0303-0098,Butterfly Creek,New Haven,at route 104b bridge.,43.500919,-76.28553,7,ONT-59,T,F,T,T,T,T,T
01-BUTT-0.1,0104-0063,Buttermilk Creek,Ashford,45 m above thomas corners rd. bridge-gaging station.,42.48288,-78.67675,9,E-23-33,T,F,T,T,T,F,F
07-BUTM-0.1,0705-0061,Buttermilk Creek,Ithaca,"rt. 13/34 bridge


























100 m downstream.",42.41778,-76.525,7,ONT-66-12-P 296-75-10,T,F,T,T,T,F,F
06-BTNT-1.3,0601-0050,Butternut Creek,Butternuts,150 below flat iron rd. bridge.,42.41945,-75.36139,4,SR-146-9,T,T,T,T,T,F,F
06-BTNT-1.5,0601-0050,Butternut Creek,Butternuts,200 m above flat iron rd. bridge.,42.42333,-75.35777,4,SR-146-9,T,F,T,T,T,F,F
06-BTNT-2.8,0601-0050,Butternut Creek,Butternuts,50 m above cr 3.,42.43722,-75.34556,4,SR-146-9,T,F,T,T,T,T,T
06-BTNT-6.3,0601-0050,Butternut Creek,Butternuts,20 m below spring st.,42.46444,-75.32167,4,SR-146-9,T,F,T,T,T,F,F
06-BTNT-14.0,0601-0140,Butternut Creek,Morris,20 m above peet rd.,42.52417,-75.25555,4,SR-146-9,T,F,T,T,T,F,F
06-BTNT-16.0,0601-0190,Butternut Creek,Morris,50 m above rte. 23.,42.54556,-75.23833,4,SR-146-9,T,F,T,T,T,T,T
06-BTNT-20.6,0601-0190,Butternut Creek,New Lisbon,20 m above cr 12.,42.58944,-75.19305,4,SR-146-9,T,F,T,T,T,T,T
06-BTNT-25.5,0601-0141,Butternut Creek,New Lisbon,40 m above cr 16.,42.64472,-75.17027,4,SR-146-9,T,F,T,T,T,F,F
06-BTNT-12.0,0601-0140,Butternut Creek,Morris,bailey rd. 50 meters above bridge.,42.511715,-75.27616,4,SR-146- 9 (portion 2),T,T,T,T,T,T,T
07-BNUT-20.6,0703-0100,Butternut Creek,La Fayette,50 m above apulia rd. bridge.,42.91161,-76.07082,7,ONT-66-11-P26-37-6,T,T,T,T,T,F,F
13-BTRN-0.8,1307-0005,Butternut Creek,Olive,0.1 miles below bridge.,41.97111,-74.23139,3,H-171/P848- 1 thru 12 (selected),F,F,F,F,F,F,F
07-BUTN-0.6,0703-0039,Butternut Creek,De Witt,Off E Seneca Tpke in Grist Mill Park.,42.991331,-76.069582,7,Ont  66-11-P26-37- 6,T,,T,,,,T
03-BUTN-7.0,0301-0024,Buttonwood Creek,Parma,50 m above rt. 259/18 bridge.,43.26545,-77.79115,8,ONT-124,T,F,T,T,T,F,F
07-BUTW-1.3,0705-0085,Buttonwood Creek,Reading,Off Spencer road downstream from railroad crossing.,42.447459,-76.924881,8,Ont  66-12-P369- 61 thru 114,T,,T,,,T,T
17-BYRM-1.3,1702-0133,Byram River,North Castle,"20 m below rte. 22 bridge. on west side of 	i-684.",41.12389,-73.70472,3,(MW3.6)  LIS-13,T,T,T,T,T,T,T
17-BYRM-2.3,1702-0133,Byram River,Pemberwick (CT),20 m below comly ave. bridge.,41.02694,-73.66111,3,(MW3.6)  LIS-13,T,F,T,T,T,T,T
11-CADM-0.9,1104-0118,Cadman Creek,Providence,5 m below county rte 13 bridge.,43.08833,-74.07805,5,H-369-P127-26-8,T,F,T,T,T,F,F
14-CDOS-0.1,1403-0003,Cadosia Creek,Hancock,5 m above rt. 17 bridge.,41.96444,-75.26334,4,D-70- 2,T,F,T,T,T,F,F
13-CATI-0.6,1306-0084,Caitlin Creek,Wawayanda,50 m below rte 93.,41.36992,-74.49277,3,H-139-13-62- 2,T,F,T,T,T,F,F
14-CALK-0.3,,Calkins Creek,Milanville (PA),10 m below river rd.,41.6725,-75.06472,3,D-38 thru 52,T,F,T,F,F,F,F
14-CALK-1.3,1401-0126,Calkins Creek,Delaware,,41.786306,-75.03552,3,D-53-2,T,T,T,F,F,T,T
14-CALL-0.2,1401-0004,Callicoon Creek,Delaware,10 m below co. rt. 133 bridge.,41.76444,-75.05556,3,D-53,T,T,T,T,T,T,T
14-CALL-1.7,1401-0004,Callicoon Creek,Delaware,intersection of sr 17b and cr 121; below confl with n br callicoon ck.,41.760347,-75.03366,3,D-53,T,F,T,T,T,T,T
11-CAMD-0.1,1103-0012,Camden Creek,Salem,hickory hill rd. bridge.,43.10222,-73.29972,5,H-301-28,T,F,T,T,T,T,F
11-CAMD-1.2,1103-0012,Camden Creek,Salem,at bridge near the end of side rd. off camden valley rd.,43.1173,-73.29259,5,H-301-28,T,F,T,T,T,F,T
05-CAMP-3.3,0503-0036,Camp Brook,Woodhull,Small bridge on Camp Brook Rd. Alternative historical location in PA just below border at next road crossing.,42.002633,-77.341013,8,Pa 11 thru 20,T,,T,,,T,T
05-CAMP-2.9,,Camp Creek,Osceola (PA),off ny co rt 127. 10 m above dirt rd. bridge.,41.99747,-77.3362,8,,T,F,T,F,F,F,F
14-CBEL-0.3,1403-0036,Campbell Brook,Colchester,100 m above river rd. bridge.,42.045,-75.02194,4,D-70-31,T,F,T,T,T,F,F
05-CAMB-4.3,0502-0031,Campbell Creek,Bath,100 m below turnpike rd. bridge. near airport.,42.32462,-77.40496,8,PA-3-58-27,T,F,F,T,T,F,F
05-CAMB-4.4,0502-0031,Campbell Creek,Bath,15 m above turnpike rd. bridge.,42.32371,-77.40424,8,PA-3-58-27,T,F,T,T,T,F,F
05-CAMB-11.2,0502-0032,Campbell Creek,Howard,20 m downstream of culvert on campbell creek rd.,42.28952,-77.509042,8,Pa 3-58-27,F,F,F,F,F,F,F
05-CAMP- 1.5,0502-0031,Campbell Creek,Bath,"behind 7376 County Route 14, owners address",42.358267,-77.389216,8,Pa  3-58-27,T,,T,,,T,T
17-LCANA-0.0,1701-0099,Canaan Lake,Brookhaven,,40.78536,-73.02089,1,(MW7.5)  AO-GSB-185,F,F,F,F,T,F,F
05-CDEA-0.7,0503-0008,Canacadea Creek,Hornell,10 m above main st. bridge.,42.32906,-77.66588,8,PA-3-57-5-47,T,F,T,T,T,F,F
05-CDEA-1.8,0503-0008,Canacadea Creek,Hornellsville,100 m above rt. 21 bridge at gaging station.,42.33567,-77.68267,8,PA-3-57-5-47,T,T,T,T,T,T,T
05-CDEA-6.3,0503-0005,Canacadea Creek,Almond,20 m above depot st. bridge.,42.31928,-77.73641,9,PA-3-57-5-47,T,F,T,T,T,F,F
05-CDEA-8.6,0503-0005,Canacadea Creek,Almond,100 m below satterlee hill rd. bridge.,42.28976,-77.74727,9,PA-3-57-5-47,T,F,T,T,T,F,F
05-CDEA-10.0,0503-0005,Canacadea Creek,Alfred,30 m above rt. 21 bridge.,42.27025,-77.756,9,PA-3-57-5-47,T,F,T,T,T,F,F
05-CDEA-11.4,0503-0005,Canacadea Creek,Alfred,200 m above treatment plant discharge.,42.2645,-77.7776,9,PA-3-57-5-47,T,F,T,T,T,F,F
05-CDEA-11.5,0503-0005,Canacadea Creek,Alfred,Off State Route 244 above treatment plant discharge.,42.263637,-77.77959,9,Pa 3-57- 5-47,T,,T,,,T,T
07-CNCR-0.4,0703-0010,Canada Creek,Rome,tannery rd. bridge; 5 m above.,43.22944,-75.53972,6,ONT-66-11-P 26-24-1-10,T,F,T,T,T,T,T
01-CWAY-0.2,0105-0008,Canadaway Creek,Dunkirk,at rt. 5 bridge.,42.47538,-79.36556,9,E-37,T,T,T,T,T,T,T
01-CWAY-7.4,0105-0020,Canadaway Creek,Pomfret,10 m upstream of spoden rd. bridge.,42.40326,-79.30452,9,E-37,T,T,T,T,T,T,T
01-CWAY-8.3,0105-0020,Canadaway Creek,Pomfret,50 m above shumla rd. bridge.,42.39059,-79.30078,9,E-37,T,T,T,T,T,T,T
01-CWAY-14.5,0105-0020,Canadaway Creek,Arkwright,cr 312.,42.3672,-79.23686,9,Ont 158..E-37,T,T,T,T,T,T,T
04-DICE-0.7,0402-0042,Canadice Outlet,Livonia,at rt. 15a bridge.,42.78337,-77.60574,8,ONT-117-27-34-11,T,F,T,T,T,F,F
04-DICE-3.2,0402-0042,Canadice Outlet,Canadice,400 m downstream of canadice.,42.75795,-77.58306,8,ONT-117-27-34-11,T,F,T,F,F,T,T
12-CAJO-0.4,1201-0027,Canajoharie Creek,Canajoharie,200 m above montgomery st bridge.,42.905,-74.57167,4,H-240-112,T,T,T,T,T,F,F
12-CAJO-5.1,1201-0027,Canajoharie Creek,Canajoharie,40 m above mcewan rd. bridge.,42.87611,-74.60333,4,H-240-112,T,T,T,T,T,T,T
12-CAJO-9.9,1201-0027,Canajoharie Creek,Canajoharie,150 m above sr.10 bridge at cornerstone bapt.church.,42.84667,-74.60306,4,H-240-112,T,F,T,T,T,F,F
12-CAJO-13.2,1201-0127,Canajoharie Creek,Canajoharie,20 m above south buel rd. bridge.,42.8456,-74.65146,4,H-240-112,T,F,T,T,T,F,F
12-CAJO-14.5,1201-0127,Canajoharie Creek,Canajoharie,50 above van deusenville rd. bridge.,42.84917,-74.67389,4,H-240-112,T,F,T,T,T,F,F
12-CAJO-16.6,1201-0127,Canajoharie Creek,Cherry Valley,10 m above mill rd. bridge.,42.8422,-74.70701,4,H-240-112,T,F,T,T,T,F,F
12-CAJO-18.5,1201-0127,Canajoharie Creek,Cherry Valley,3 m below dugway rd. bridge.,42.85333,-74.7336,4,H-240-112,T,F,T,T,T,F,F
12-WCAJO-0.9,1201-0027,Canajoharie Creek,Canajoharie,off mill st.,42.898917,-74.5723,4,H-240-112,F,F,F,F,F,F,F
12-WCAJO-2.4,1201-0027,Canajoharie Creek,Canajoharie,wintergreen park rd.,42.8835,-74.566717,4,H-240-112,F,F,F,F,F,F,F
07-LCAND-0.0,,Canandaigua Lake,Canandaigua,ny nla lake site to test ibi.,42.771919,-77.309548,8,,F,F,F,F,F,F,F
07-CANA-3.5,0704-0041,Canandaigua Outlet,Lyons,100 m above alloway rd. bridge.,43.02228,-76.98958,8,ONT-66-12-52,T,T,T,T,T,F,F
07-CANA-21.6,0704-0042,Canandaigua Outlet,Manchester,off cr 7. below nys thruway bridge.,42.97631,-77.18089,8,ONT-66-12-52,T,F,T,T,T,F,F
07-CANA-23.9,0704-0011,Canandaigua Outlet,Manchester,above state route 96 bridge.,42.97417,-77.22334,8,ONT-66-12-52,T,F,T,T,T,T,T
07-CANA-26.8,0704-0011,Canandaigua Outlet,Hopewell,below county route 13 bridge.,42.94361,-77.22166,8,ONT-66-12-52,T,F,T,T,T,T,T
07-CANA-31.2,0704-0011,Canandaigua Outlet,Canandaigua,above county route 4 bridge.,42.90167,-77.24639,8,ONT-66-12-52,T,F,T,T,T,F,F
07-CANA-32.8,0704-0001,Canandaigua Outlet,Canandaigua,below saltonstall rd.,42.8867,-77.26598,8,ONT-66-12-52,T,F,T,T,T,T,T
07-CANA-33.5,0704-0001,Canandaigua Outlet,Canandaigua,below route 20 (between east and west bound lanes).,42.87806,-77.26972,8,ONT-66-12-52,T,F,T,T,T,F,F
06-WACT-0.4,0602-0013,Canasawacta Creek,Norwich,10 m above rte. 12 bridge.,42.51944,-75.52333,7,SR-44-54,T,F,T,T,T,F,F
04-RAGA-1.4,0404-0001,Canaseraga Creek,Mount Morris,at rt. 408 bridge. usgs gage station spillway.,42.73598,-77.84183,8,ONT-117-66,T,T,T,T,T,T,T
04-RAGA-4.3,0404-0001,Canaseraga Creek,Groveland,east of i-390 bridge; 1 mile south of rest area.,42.71975,-77.83185,8,ONT-117-66,T,F,T,F,F,F,F
04-RAGA-9.3,0404-0001,Canaseraga Creek,Groveland,at pioneer rd. bridge.,42.68074,-77.78448,8,ONT-117-66,T,T,T,T,T,T,T
04-RAGA-16.7,0404-0013,Canaseraga Creek,West Sparta,30 m above white bridge rd. bridge.,42.59299,-77.7266,8,ONT-117-66,T,F,T,T,T,F,F
04-RAGA-18.6,0404-0013,Canaseraga Creek,North Dansville,rte 36; 50 yds below bridge.,42.57165,-77.72581,8,ONT-117-66,T,F,T,T,T,T,T
04-RAGA-19.7,0404-0013,Canaseraga Creek,North Dansville,40 m above rt. 436 bridge.,42.56028,-77.71538,8,ONT-117-66,T,F,T,T,T,F,F
04-RAGA-21.2,0404-0013,Canaseraga Creek,North Dansville,30 m below poag hole rd. bridge.,42.54272,-77.70199,8,ONT-117-66,T,F,T,T,T,F,F
04-RAGA-31.1,0404-0013,Canaseraga Creek,Burns,100 m above rt. 70 bridge.,42.46037,-77.7741,9,ONT-117-66,T,F,T,T,T,F,F
07-SRAG-0.1,0703-0034,Canaseraga Creek,Sullivan,upstream of lake rd. access by boat from briggs bay dec launch.,43.14528,-75.86412,7,Ont  66-11-P26-33,T,T,T,F,F,F,T
07-SRAG-4.2,0703-0095,Canaseraga Creek,Sullivan,upstream of gee rd. bridge.,43.11,-75.83199,7,ONT-66-11-P 26-33-2-a,F,F,F,F,F,F,F
07-SRAG-6.6,0703-0095,Canaseraga Creek,Sullivan,at new boston rd. bridge.,43.08,-75.82638,7,ONT-66-11-P26-33-2,T,F,T,T,T,F,F
07-SRAG-9.0,0703-0095,Canaseraga Creek,Sullivan,150 m above rte 5 bridge.,43.05444,-75.84611,7,ONT-66-11-P26-33-2,T,F,T,T,T,T,T
07-SRAG-7.0,0703-0095,Canaseraga Creek,Sullivan,Upstream Harsh road crossing.,43.06921,-75.824837,7,Ont  66-11-P26-33- 2,T,,T,,,,T
07-TOTA-0.6,0703-0002,Canastota Creek,Lenox,several hundred ft below north main st bridge just upstream of interstate 90 bridge.,43.09,-75.759,7,ONT-66-11-P26-33-5,T,F,T,T,T,T,T
07-TOTA-0.8,0703-0002,Canastota Creek,Lenox,100 m above n. main st. rd. bridge.,43.08861,-75.75499,7,ONT-66-11-P26-33-5,T,T,T,T,T,T,T
07-TOTA-4.7,0703-0096,Canastota Creek,Lincoln,nelson rd. bridge. downstream of silage leachate farm.,43.042686,-75.762079,7,Ont  66-11-P26-33- 5,T,F,T,T,T,T,T
07-TOTA-8.2,0703-0096,Canastota Creek,Lincoln,nelson rd. bridge. upstream of silage leachate farm.,43.009316,-75.7822,7,Ont  66-11-P26-33- 5,T,F,T,F,F,F,F
04-CNEA-0.1,0403-0008,Caneadea Creek,Caneadea,at sr 19.,42.383055,-78.15472,9,Ont 117-136,F,T,F,F,F,F,F
04-CNEA-0.7,0403-0008,Caneadea Creek,Caneadea,mill st.; downstream of lake; bridge out site.,42.38637,-78.16373,9,ONT-117-136,T,F,T,F,F,F,F
04-CNEA-6.5,0403-0060,Caneadea Creek,Rushford,50 m below hardy corners rd. (co. rt. 7e) bridge.,42.38255,-78.25355,9,ONT-117-136,T,F,T,T,T,T,T
04-CNEA-10.1,0403-0060,Caneadea Creek,Rushford,600 m upstream of hardy's corner rd.,42.358923,-78.301007,9,Ont 117-136,T,T,T,T,T,T,T
05-STEO-0.6,0503-0011,Canisteo River,Erwin,at co rte 73 (hills rd) bridge.,42.10653,-77.1458,8,PA-3-57-5,T,F,T,T,T,T,T
05-STEO-9.7,0503-0006,Canisteo River,Rathbone,40 m below newcomb rd. bridge.,42.11616,-77.29912,8,PA-3-57-5,T,T,T,T,T,T,T
05-STEO-19.0,0503-0006,Canisteo River,Cameron,at co rt 22 bridge.,42.19295,-77.39251,8,PA-3-57-5,T,F,T,T,T,F,F
05-STEO-24.7,0503-0012,Canisteo River,Canisteo,50 m below bridge.,42.24891,-77.45244,8,PA-3-57-5,T,F,T,T,T,F,F
05-STEO-28.7,0503-0012,Canisteo River,Canisteo,above catatunk rd. bridge.,42.25261,-77.51771,8,PA-3-57-5,T,T,T,T,T,T,T
05-STEO-32.5,0503-0012,Canisteo River,Canisteo,40 m below carson (co rt 119) bridge.,42.264,-77.57985,8,PA-3-57-5,T,F,T,T,T,T,T
05-STEO-33.5,0503-0001,Canisteo River,Canisteo,100 m above end or ordway lane.,42.27253,-77.59595,8,PA-3-57-5,T,F,T,T,T,F,F
05-STEO-33.9,0503-0001,Canisteo River,Canisteo,at depot st bridge.,42.2762,-77.60151,8,PA-3-57-5,T,T,T,T,T,F,F
05-STEO-35.7,0503-0001,Canisteo River,Hornellsville,5 m below magee rd. bridge.,42.28617,-77.6244,8,PA-3-57-5,T,T,T,T,T,T,T
05-STEO-37.6,0503-0001,Canisteo River,Hornellsville,former asbaugh hill rd. bridge.,42.29946,-77.65046,8,PA-3-57-5,T,F,T,T,T,F,F
05-STEO-44.0,0503-0013,Canisteo River,Hornellsville,5 m below co.rt 65 (sanitarium rd) bridge.,42.37307,-77.68947,8,PA-3-57-5,T,F,T,T,T,F,F
05-STEO-55.4,0503-0013,Canisteo River,Birdsall,at lunn rd. bridge.,42.36968,-77.854257,9,PA-3-57-5,T,T,T,T,T,T,T
07-CANO-0.8,0705-0070,Canoga Creek,Fayette,road crossing on State route 89.,42.862869,-76.749509,8,Ont  66-12-P296- 99 thru 167 (sel.),T,,T,,,T,T
13-CNOP-0.8,1301-0141,Canopus Creek,Cortlandt,sprout brook rd.,41.31445,-73.92222,3,H- 55- 2,T,T,T,T,T,F,F
08-CDON-0.4,0801-0313,Capidon Creek,New Bremen,van amber rd. at culvert crossing.,43.86111,-75.47556,6,ONT-19-41,T,F,T,T,T,F,F
08-CDON-4.1,0801-0313,Capidon Creek,New Bremen,250 meters downstream of cutoff rd.,43.867568,-75.41966,6,ONT-19-41,T,F,T,T,T,T,T
17-CARL-0.8,1701-0089,Carlls River,Babylon,20 m below park ave. culvert.,40.70194,-73.32861,1,(MW7.8)  AO-GSB-208,T,T,T,T,T,T,T
17-CARL-1.8,1701-0089,Carlls River,Babylon,at rt. 27.,40.71556,-73.32917,1,(MW7.8)  AO-GSB-208,T,T,T,T,T,T,T
17-CARM-2.1,1701-0321,Carmans River,Brookhaven,buoy 2. opposite mouth of beaverdam creek.,40.7575,-72.92166,1,(MW7.4)  AO-GSB-177,T,F,T,F,F,F,F
17-CARM-2.6,1701-0321,Carmans River,Brookhaven,buoy 8. opposite smith point.,40.74194,-72.89082,1,(MW7.4)  AO-GSB-177,T,F,T,F,F,F,F
17-CARM-3.0,1701-0321,Carmans River,Brookhaven,opposite museum (shirley).,40.75583,-72.89167,1,(MW7.4)  AO-GSB-177,T,F,T,F,F,F,F
17-CARM-3.7,1701-0321,Carmans River,Brookhaven,green buoy 3. opposite mouth of big fish creek.,40.76639,-72.89167,1,(MW7.4)  AO-GSB-177,T,F,T,F,F,F,F
17-CARM-4.8,1701-0321,Carmans River,Brookhaven,50 m upstream of mouth of yaphank creek.,40.78167,-72.895,1,(MW7.4)  AO-GSB-177,T,F,T,F,F,F,F
17-CARM-5.8,1701-0321,Carmans River,Brookhaven,opposite usfw wertheim ranger station.,40.79445,-72.88528,1,(MW7.4)  AO-GSB-177,T,F,T,T,T,F,F
17-CARM-6.2,1701-0102,Carmans River,Brookhaven,dec fishing access. north of montauk highway.,40.80083,-72.88417,1,(MW7.4)  AO-GSB-177,T,F,T,T,T,T,T
17-CARM-8.0,1701-0102,Carmans River,Brookhaven,e gate. off river rd.,40.82306,-72.8925,1,(MW7.4)  AO-GSB-177,T,F,T,T,T,T,T
17-CARM-9.0,1701-0102,Carmans River,Brookhaven,below foot bridge at usgs gaging station.,40.83,-72.90694,1,(MW7.4)  AO-GSB-177,T,T,T,T,T,T,T
17-CARM-10.9,1701-0102,Carmans River,Brookhaven,below upper lake.,40.84139,-72.93693,1,(MW7.4)  AO-GSB-177,T,F,T,T,T,T,T
17-CARM-12.9,1701-0102,Carmans River,Brookhaven,below east bartlett rd.,40.86306,-72.94334,1,(MW7.4)  AO-GSB-177,T,F,T,T,T,T,T
10-CARN-1.2,1004-0020,Carney Brook,Chesterfield,40 m below lamountain rd. bridge.,44.45468,-73.56276,5,C- 25,T,F,T,T,T,T,T
12-CARO-0.3,1201-0076,Caroga Creek,Palatine,200 m above rt. 5 bridge.,42.96806,-74.62861,4,H-240-127,T,T,T,T,T,T,T
12-CARO-7.9,1201-0076,Caroga Creek,Ephratah,800 ft nw off yanney rd.,43.001801,-74.54849,5,H-240-127,T,F,T,T,T,T,T
12-CARO-9.0,1201-0076,Caroga Creek,Ephratah,10 m above mouth of sprite creek.,43.00195,-74.53917,5,H-240-127,T,F,T,T,T,F,F
07-CARP-2.1,0701-0033,Carpenters Brook,Elbridge,peru rd. bridge; 60 m upstream.,43.07195,-76.42139,7,ONT-66-12-28,T,F,T,T,T,F,F
05-CARI-0.2,0503-0030,Carrington Creek,Fremont,10 m upstream of evans rd.,42.40856,-77.61823,8,PA-3-57-5-49,T,T,T,T,T,T,T
02-CRLT-0.2,0201-0036,Carrollton Run,Carrollton,at bridge on south carrollton rd.,42.097,-78.658,9,PA-53-33,T,F,F,T,T,T,T
06-CARR-1.9,0601-0005,Carrs Creek,Sidney,30 m below poplar hill rd. bridge.,42.30333,-75.31555,4,SR-153,T,F,T,T,T,T,T
03-CART-0.9,0303-0040,Carter Creek,Orleans,dog hill rd.,44.12094,-75.94156,6,ONT-18-4,T,F,T,F,T,T,T
04-CASD-0.4,0402-0041,Cascade Brook,Middlebury,250 m upstream of sr 19 acadamy street.,42.82201,-78.09362,9,ONT-117-25-28a,T,F,F,F,F,T,T
10-CADE-0.1,1004-0071,Cascade Brook,Keene,30 m above church st.,44.2625,-73.79583,5,C- 25-27,T,T,T,T,T,F,F
07-CASC-0.8,0705-0035,Cascadilla Creek,Ithaca,lake rd. and madison st; 50 m above.,42.44583,-76.50026,7,ONT-66-12-P296-75-3,T,F,T,T,T,T,T
13-CASP-1.7,1301-0195,Casper Creek,Poughkeepsie,20 m above camelot rd. bridge.,41.63222,-73.92693,3,H-105,T,T,T,T,T,T,F
13-WCASP-7.8,1301-0195,Casper Creek,Poughkeepsie,stop and shop in poughkeepsie.,41.701136,-73.88862,3,H-105,F,F,F,F,F,F,F
02-CSRN-1.1,0202-0076,Cass Run,Carroll,Atstate Rt 62 / Frewsburg-Kennedy road crossing.,42.083887,-79.120282,9,Pa-63-12,T,,T,,,,T
02-CASS-2.3,0202-0012,Cassadaga Creek,Poland,dolloff rd. 20 m below.,42.09653,-79.15674,9,PA-63-13,T,F,T,T,T,T,T
02-CASS-12.5,0202-0030,Cassadaga Creek,Ellicott,20 m above ross mills rd. bridge.,42.15508,-79.22382,9,PA-63-13,T,T,T,T,T,T,T
02-CASS-25.6,0202-0031,Cassadaga Creek,Stockton,rt. 56. 80 m below dead-end bridge.,42.24392,-79.30646,9,PA-63-13,T,F,T,T,T,F,T
02-CASS-33.3,0202-0031,Cassadaga Creek,Stockton,10 m below luce rd. bridge.,42.31195,-79.29892,9,PA-63-13,T,F,T,T,T,F,T
02-CASS-38.5,0202-0040,Cassadaga Creek,Pomfret,"route 60 bridge 


























previously thought to be a trib. actually cassadaga ck.",42.352743,-79.3118,9,PA-63-13-P133-3-P135-P136-2,T,F,T,T,T,T,T
01-LCASS-0.0,,Cassadaga Lake,Stockton,ny nla lake site to test ibi.,42.344211,-79.320386,9,,F,F,F,F,F,F,F
05-CASL-4.2,0502-0014,Castle Creek,Howard,450 meters upstream of saxton rd.,42.404787,-77.520246,8,PA-3-58-38-1,F,F,F,F,F,F,F
06-CSTL-0.9,0602-0065,Castle Creek,Chenango,40 m above rt. 11 bridge next to jehovah's witnesses hall.,42.16882,-75.89902,7,SR-44-5,T,T,T,T,T,T,T
06-CSTL-1.9,0602-0065,Castle Creek,Chenango,adj. to rt. 11.,42.18068,-75.90225,7,SR-44-5,T,F,T,T,T,T,T
06-CSTL-4.7,0602-0065,Castle Creek,Chenango,east off castle creek rd. across farm field.,42.21498,-75.9068,7,SR-44-5,T,F,T,T,T,T,T
07-CTLE-0.1,0705-0027,Castle Creek,Geneva,50 m from trib mouth.,42.873,-76.973,8,Ont  66-12-P369-116 thru 139,T,T,T,T,T,T,T
14-CHOL-0.4,1403-0093,Cat Hollow,Colchester,off sr 206.,42.06522,-74.94134,4,D-70-43 thru 78,T,T,T,T,T,T,T
06-CATA-1.7,0603-0031,Catatonk Creek,Tioga,30 m downstream of glen mary drive bridge.,42.14167,-76.29472,7,SR-16-4,T,T,T,T,T,T,T
06-CATA-5.1,0603-0012,Catatonk Creek,Candor,off rt. 96; 0.1 mi. above catatonk golf course br.,42.1826,-76.3087,7,SR-16-4,T,F,T,T,T,F,F
06-CATA-11.7,0603-0008,Catatonk Creek,Candor,60 m above griddleyville cross rd. bridge.,42.2357,-76.37679,7,SR-16-4,T,F,T,T,T,T,T
03-CATF-1.3,0303-0099,Catfish Creek,New Haven,co rte 6 bridge; 5 m above.,43.49889,-76.31667,7,ONT-60,T,T,T,T,T,T,T
07-CATH-0.1,0705-0011,Catherine Creek,Montour,dec fishing access site. 0.1 km above rte 14.,42.33444,-76.83861,8,ONT-66-12-P369-59,T,F,T,T,T,F,F
07-CATH-0.6,0705-0011,Catherine Creek,Montour,south genesee st bridge.,42.328754,-76.84401,8,Ont  66-12-P369- 59 (upper),T,T,T,T,T,T,T
07-DKTN-0.2,0705-0080,Catlin Mill Creek,Montour,100 meters downstream S Lhommedieu St off from Catherin Creek Park rd,42.344077,-76.835337,8,Ont  66-12-P369- 59- 5a,T,,T,,,T,T
05-CATO-0.6,0501-0046,Caton Creek,Caton,30 m above west caton rd. bridge (cr40a).,42.09136,-77.04207,8,PA-3-47-2,T,F,T,T,T,F,F
13-CATS-5.6,1309-0004,Catskill Creek,Catskill,0.5 mi.below rt.23b bridge;off gilfeather park rd.,42.2525,-73.90361,4,H-193,T,F,T,T,T,F,F
13-CATS-6.2,1309-0004,Catskill Creek,Catskill,50 m above rt. 23b bridge.,42.25639,-73.90471,4,H-193,T,T,T,T,T,T,F
13-CATS-10.9,1309-0004,Catskill Creek,Cairo,off co. rt. 23b; 150 m above ira vail rd. bridge.,42.27889,-73.95971,4,H-193,T,F,T,T,T,F,T
13-CATS-13.7,1309-0004,Catskill Creek,Cairo,0.6 mi.below lakes mills bridge off warren stein rd.,42.31389,-73.9836,4,H-193,T,F,T,T,T,F,F
13-CATS-22.6,1309-0011,Catskill Creek,Durham,50 m below co. rt. 67a bridge.,42.37278,-74.08028,4,H-193,T,F,T,T,T,F,F
13-CATS-24.5,1309-0011,Catskill Creek,Durham,50 m below rt. 22 bridge.,42.40556,-74.15194,4,H-193,T,F,T,T,T,F,F
13-CATS-29.4,1309-0011,Catskill Creek,Broome,off rt. 145; 100 m below west winds diner.,42.47142,-74.24693,4,H-193,T,F,T,T,T,F,F
13-CATS-32.8,1309-0011,Catskill Creek,Broome,off rt.145 at dec fishing access;1 mi.below rt.19a.,42.47,-74.24499,4,H-193,T,F,T,T,T,F,T
13-CATS-39.0,1309-0011,Catskill Creek,Broome,mattice rd. bridge.,42.485,-74.26769,4,H-193,F,F,F,F,F,F,F
13-WCATS-39.0,1309-0011,Catskill Creek,Broome,mattice rd. bridge.,42.485,-74.26769,4,H-193,F,F,F,F,F,F,F
13-WCATS-41.1,1309-0011,Catskill Creek,Broome,off sr 145. opposite vaughn rd.,42.4996,-74.2923,4,H-193,F,F,F,F,F,F,F
14-CATL-0.1,1403-0029,Cattail Brook,Rockland,river street bridge 30 m above.,41.9003,-74.8318,3,D-70-20-25- 8,T,F,T,T,T,T,T
01-CATT-48.4,0104-0005,Cattaragus Creek,Yorkshire,750 m downstream of sr 39.,42.53371,-78.47919,9,Ont 158..E-23 (portion 5),T,F,T,T,T,T,T
01-CATT-2.0,0104-0029,Cattaraugus Creek,Brant,at rts. 5 and 20 bridge.,42.5685,-79.10426,9,E-23,T,T,T,T,T,T,T
01-CATT-11.0,0104-0053,Cattaraugus Creek,Perrysburg,200 m below versailles plank rd. bridge.,42.52499,-78.99087,9,E-23,T,F,T,T,T,F,F
01-CATT-17.5,0104-0053,Cattaraugus Creek,Collins,100 m above rt. 39 (main st.) bridge.,42.46261,-78.93382,9,E-23,T,F,T,T,T,T,T
01-CATT-27.3,0104-0074,Cattaraugus Creek,Collins,100 m above n. otto rd. bridge; dec fishing access.,42.45687,-78.81208,9,E-23,T,F,T,T,T,F,F
01-CATT-36.9,0104-0025,Cattaraugus Creek,Ashford,100 m below scoby hill rd. bridge; 300 m below dam.,42.48417,-78.70084,9,E-23,T,T,T,T,T,T,T
01-CATT-42.8,0104-0020,Cattaraugus Creek,Concord,200 m above rt. 240 (vaughn st.) bridge.,42.49735,-78.6392,9,E-23,T,F,T,T,T,F,F
01-CATT-46.9,0104-0020,Cattaraugus Creek,Sardinia,400 m downstream of hake rd. bridge.,42.51262,-78.58609,9,E-23,T,T,T,T,T,T,T
01-CATT-53.0,0104-0005,Cattaraugus Creek,Yorkshire,100 m above cr 225a bridge.,42.52713,-78.50803,9,E-23,T,F,T,T,T,F,F
01-CATT-56.4,0104-0005,Cattaraugus Creek,Arcade,150 m below north woods rd. bridge.,42.53685,-78.45947,9,E-23,T,F,T,T,T,F,F
01-CATT-58.9,0104-0005,Cattaraugus Creek,Arcade,40 m above water st. bridge.,42.53564,-78.41977,9,E-23,T,T,T,T,T,T,T
01-CATT-64.4,0104-0005,Cattaraugus Creek,Arcade,at east arcade rd. bridge.,42.5693,-78.34674,9,E-23,T,T,T,T,T,T,T
01-LRNC_07-0.1,0104-0029,Cattaraugus Creek,Brant,access at sunset bay dec launch. multiplates are downstream on far shore.,42.56944,-79.13582,9,E-23,F,F,F,F,F,F,F
12-CAYA-0.1,1201-0001,Cayadutta Creek,Mohawk,20 m above rt. 5 bridge.,42.95333,-74.38084,4,H-240-89,T,F,T,T,T,F,F
12-CAYA-2.9,1201-0001,Cayadutta Creek,Mohawk,50 m above rt. 334 bridge.,42.96722,-74.42083,4,H-240-89,T,F,T,T,T,F,F
12-CAYA-4.7,1201-0001,Cayadutta Creek,Johnstown,40 m above rt. 334 bridge. 1.9 mi. below stp.,42.98667,-74.43027,5,H-240-89,T,T,T,T,T,T,T
12-CAYA-6.7,1201-0001,Cayadutta Creek,Johnstown,20 m above union ave. ext. bridge.,42.99333,-74.39861,5,H-240-89,T,F,T,T,T,F,F
12-CAYA-8.2,1201-0001,Cayadutta Creek,Johnstown,10 m above west main st. bridge.,43.00611,-74.37944,5,H-240-89,T,F,T,T,T,F,F
12-CAYA-10.1,1201-0044,Cayadutta Creek,Johnstown,40 m below townsend ave. bridge.,43.02083,-74.36583,5,H-240-89,T,F,T,T,T,T,T
12-CAYA-12.9,1201-0044,Cayadutta Creek,Gloversville,200 m above main st. bridge.,43.04806,-74.34917,5,H-240-89,T,F,T,T,T,F,F
12-CAYA-13.0,1201-0044,Cayadutta Creek,Gloversville,20 m above confluence with west branch.,43.04972,-74.35,5,H-240-89,T,F,T,T,T,F,F
12-CAYA-15.4,1201-0044,Cayadutta Creek,Johnstown,5 m above west state st. ext. bridge.,43.06778,-74.35806,5,H-240-89,T,T,T,T,T,T,T
01-CYGA-1.2,0101-0001,Cayuga Creek,Niagara Falls,SR 62,43.091944,-78.9625,9,ONT-158-8,F,T,F,F,F,F,F
01-CYGA-2.4,0101-0001,Cayuga Creek,Niagara,at rt. 182 (porter rd.) bridge.,43.10106,-78.95743,9,ONT-158-8,T,F,T,T,T,T,T
01-WYUGA-4.7,0103-0007,Cayuga Creek,Cheektowaga,rowley rd. downstream from bridge.,42.894388,-78.731805,9,E-1-6,F,F,F,F,F,F,F
01-WYUGA-12.3,0103-0017,Cayuga Creek,Lancaster,downstream from bridge at bowen rd.,42.889694,-78.64352,9,E-1-6,F,F,F,F,F,F,F
01-YUGA-3.9,0103-0007,Cayuga Creek,Cheektowaga,200 m below rt. 277 bridge.,42.88333,-78.75652,9,E-1-6,T,T,T,T,T,T,T
01-YUGA-4.7,0103-0007,Cayuga Creek,Cheektowaga,rowley rd.,42.89211,-78.7317,9,Ont 158..E- 1- 6,T,F,T,T,T,T,T
01-YUGA-12.3,0103-0017,Cayuga Creek,Lancaster,at bowen rd.,42.88967,-78.64347,9,E-1-6,T,T,T,T,T,T,T
01-YUGA-19.9,0103-0017,Cayuga Creek,Alden,at three rod rd. (cr 354) bridge.,42.8802,-78.5223,9,E-1-6,T,F,T,T,T,F,F
01-YUGA-26.0,0103-0017,Cayuga Creek,Bennington,Downstream of Folsomdale Rd.,42.82723773,-78.45003373,9,Ont 158..E- 1- 6,T,T,T,F,F,T,T
01-YUGA-31.5,0103-0002,Cayuga Creek,Bennington,10 m upstream of rte 77 bridge.,42.792,-78.39651,9,E-1-6,T,F,T,T,T,F,F
07-LCAGA-0.0,,Cayuga Lake,Romulus,,42.74,-76.74,8,,F,F,F,F,F,F,F
07-CAYG-1.1,0705-0059,Cayuga Lake Inlet,Ithaca,200 m below rte 13.,42.41606,-76.52838,7,ONT-66-12-P296-75,T,T,T,T,T,T,T
07-CAYG-4.1,0705-0059,Cayuga Lake Inlet,Newfield,rte 34 bridge; 200 m upstream.,42.38472,-76.55583,7,ONT-66-12-P296-75,T,F,T,T,T,T,T
06-CAYU-0.5,,Cayuta Creek,Sayre (PA),50 m above n. thomas ave. (dominic pace rd) bridge.,41.98833,-76.50805,7,SR,T,F,T,T,T,F,F
06-CAYU-1.6,,Cayuta Creek,Sayre (PA),off spring st. 50 m below rt. 17 bridge.,41.99833,-76.52333,7,SR,T,F,T,T,T,F,F
06-CAYU-1.7,0603-0022,Cayuta Creek,Barton,location below waverly wwtf collected by srbc. not for permanance in sbu db.,42,-76.522972,7,SR (Pa)-1 (portion 1),F,F,F,T,T,F,F
06-CAYU-2.1,0603-0022,Cayuta Creek,Barton,100 m above brd. st. bridge.,42.00389,-76.52361,7,SR-Pa 1,T,T,T,T,T,T,T
06-CAYU-8.5,0603-0064,Cayuta Creek,Barton,100 m downstream of reniff rd.,42.115445,-76.547027,7,SR (Pa)-1 (portion 2),T,T,T,T,T,T,T
06-CAYU-15.5,0603-0065,Cayuta Creek,Van Etten,wyncoop creek rd. under bridge.,42.20284,-76.57341,8,SR-Pa 1,T,T,T,T,T,T,T
06-CAYU-17.3,0603-0065,Cayuta Creek,Van Etten,walk to creek at pull of on decker rd.,42.21675,-76.59775,8,SR-Pa 1,T,F,T,T,T,T,T
01-CAZE-0.1,0103-0009,Cazenovia Creek,Aurora,rte 20.,42.76003,-78.64523,9,E-1-4,T,F,T,F,F,F,F
01-CAZE-1.1,0103-0009,Cazenovia Creek,Buffalo,at cazenovia st. bridge.,42.850556,-78.80916,9,Ont 158..E- 1- 4,F,T,F,F,F,F,F
01-CAZE-1.6,0103-0009,Cazenovia Creek,Buffalo,80 m below parkside dr. bridge.,42.84589,-78.80645,9,E-1-4,T,T,T,T,T,T,T
01-CAZE-2.8,0103-0009,Cazenovia Creek,West Seneca,seneca st.,42.84068,-78.78628,9,E-1-4,T,F,T,F,F,F,F
01-CAZE-14.5,0103-0009,Cazenovia Creek,Aurora,50 m above willardshire rd. bridge.,42.7797,-78.6826,9,E-1-4,T,F,T,T,T,F,F
09-CEDL-0.1,0904-0023,Cedar Lake Stream,Hermon,spruce rd.,44.372,-75.2154,6,SL- 2-25- 2,T,T,T,F,T,T,T
13-CDRP-1.7,1301-0062,Cedar Pond Brook,Stony Point,in lowland town park.,41.2268,-73.98465,3,H-43,T,F,F,T,T,T,F
11-CEDR-14.3,1104-0278,Cedar River,Indian Lake,0.8 mi. above rt.28 on cedar river rd.,43.78333,-74.32082,5,H-469,T,F,T,T,T,T,T
11-XCR-1.9,1104-0064,Cedar River,Newcomb,above mouth near indian lake.,43.85583,-74.22277,5,H-469,F,F,F,T,T,F,F
11-XCR-14.9,1104-0278,Cedar River,Indian Lake,above bear trap brook near indian lake.,43.78305,-74.33194,5,H-469,F,F,F,T,T,F,F
11-XCR-20.6,1104-0278,Cedar River,Indian Lake,above brown's brook near indian lake.,43.77945,-74.4236,5,H-469,F,F,F,T,T,F,F
11-XCR-25.6,1104-0278,Cedar River,Lake Pleasant,below wakely dam near indian lake.,43.72722,-74.47166,5,H-469,F,F,F,T,T,F,F
08-CELL-0.3,0801-0346,Cellar Brook,Arietta,15 m above bridge culvert. where cellar bk crosses.,43.70472,-74.57917,5,ONT-19-81-71-2-1,T,F,T,F,F,F,F
06-CENB-0.6,0601-0147,Center Brook,New Berlin,cr 8 at bridge.,42.64333,-75.32972,7,SR-146-37c,T,F,T,T,T,F,F
11-CRWH-2.3,1102-0005,Center White Creek,White Creek,lincoln hill rd. bridge/culvert.,42.975157,-73.345817,5,H-264-20,T,F,F,T,T,T,T
07-CCAN-80.1,0704-0008,Central Barge Canal,Galen,light 586. below lock 26.,43.05268,-76.83503,8,ONT-66-12-52,T,F,T,T,T,F,T
07-CCAN-99.8,0704-0020,Central Barge Canal,Arcadia,east of wide waters; whitbeck rd. bridge.,43.05244,-77.1283,8,ONT-66-12-52-23-P246,T,F,T,T,T,F,T
07-LRNC_08-99.9,0704-0020,Central Barge Canal,Arcadia,access at public launch. multiplates are downstream on right shore.,43.05167,-77.13055,8,ONT-66-12-52-23-P246,F,F,F,F,F,F,F
07-LRNC_60-82.7,0704-0027,Central Barge Canal,Galen,public boat access.,43.07975,-76.86646,8,ONT-66-12-52,F,F,F,T,T,F,F
02-CHAD-1.6,0202-0018,Chadakoin River,Ellicott,5 m below work st. bridge.,42.11792,-79.19603,9,PA-63-13-4,T,T,T,T,T,F,F
02-CHAD-2.2,0202-0018,Chadakoin River,Ellicott,50 m below south dow st. bridge.,42.11245,-79.20303,9,PA-63-13-4,T,T,T,T,T,T,T
02-CHAD-3.7,0202-0018,Chadakoin River,Jamestown,50 m above buffalo st. bridge; 10 m below rr bridge.,42.10672,-79.21987,9,PA-63-13-4,F,F,F,F,F,F,F
02-CHAD-4.6,0202-0018,Chadakoin River,Jamestown,20 m below windsor st bridge.,42.09731,-79.22833,9,PA-63-13-4,F,F,F,F,F,F,F
02-CHAD-5.6,0202-0018,Chadakoin River,Jamestown,5 m below main street bridge.,42.09363,-79.24155,9,PA-63-13-4,T,F,T,T,T,T,T
02-CHAD-1.9,0202-0018,Chadakoin River,Ellicott,75m upstream of S Phetteplace Street bridge. RIBS Routine site (02-CHAD-2.2) was moved due to difficulty sampling (near wier). This site is wadeable.,42.114295,-79.199149,9,PA-63-13-4,,,T,,,,
10-CHMP-1.1,1005-0034,Champlain Canal,Whitehall,saunders street just below restaurant dock.,43.555,-73.401,5,C-134,T,T,T,T,T,F,F
10-CHMP-6.3,1005-0036,Champlain Canal,Whitehall,ryder rd. 200 m above bridge.,43.48231,-73.42531,5,C-134- 4,T,T,T,T,T,F,F
10-CHMP-17.3,1005-0036,Champlain Canal,Kingsbury,Approximately 0.1 miles above New Swamp Road crossing.,43.333699,-73.509446,5,C-134- 4,,,,,,,
17-CHAM-1.8,1701-0019,Champlin Creek,Islip,5 m below moffitt blvd. bridge (culvert).,40.73722,-73.20167,1,(MW7.8)  AO-GSB-194,T,F,T,T,T,T,T
06-CHAR-3.9,0601-0014,Charlotte Creek,Davenport,70 m upstream of hollow rd. bridge.,42.44417,-74.96138,4,SR-183,T,F,T,T,T,F,F
06-CHAR-9.5,0601-0167,Charlotte Creek,Davenport,below high point rd.,42.46842,-74.88557,4,SR-183,T,T,T,T,T,T,T
06-CHAR-27.9,0601-0193,Charlotte Creek,Summit,cr 16. charlotteville rd.,42.568266,-74.62588,4,SR-183,T,F,T,T,T,F,F
06-WCHAR-22.2,0601-0193,Charlotte Creek,Summit,dugway rd. bridge.,42.522,-74.7032,4,SR-183,F,F,F,F,F,F,F
10-CHAT-0.7,1005-0023,Charter Brook,Putnam,100 m above cr 2.,43.80167,-73.39444,5,C-102,T,F,T,T,T,F,F
14-CHSB-1.0,1404-0048,Chase Brook,Tompkins,chase brook rd.,42.09418,-75.17786,4,D-71-14 thru 32,T,F,T,T,T,T,T
06-CHAS-0.7,0601-0194,Chase Creek,Hartwick,100 m downstream of greenough rd.,42.660369,-74.961192,4,SR-188 thru 207 (selected),T,T,T,T,T,T,T
09-CGAY-2.7,0902-0055,Chateaugay River,Chateaugay,20 m above sam cook rd. bridge.,44.96278,-74.13249,5,SLC-21,T,T,T,T,T,T,T
09-CGAY-4.9,0902-0055,Chateaugay River,Chateaugay,above brayton hollow rd. bridge.,44.94056,-74.12416,5,SLC-21,T,F,T,T,T,F,F
09-CGAY-7.0,0902-0055,Chateaugay River,Chateaugay,10 m below sr 11 bridge.,44.92547,-74.09455,5,SLC-21,T,F,T,T,T,F,F
12-WCNOO-1.2,1201-0226,Chaughtanoonda Creek,Glenville,cr 59 (wolf hollow rd).,42.9095,-74.07589,4,H-240-30 thru 50,F,F,F,F,F,F,F
03-CHMO-6.2,0303-0010,Chaumont River,Clayton,below rte. 179 bridge.,44.13944,-76.06778,6,ONT-8,T,F,T,T,T,F,F
03-CHMO-8.6,0303-0037,Chaumont River,Clayton,0.25 mile se off cr 11.,44.152698,-76.040947,6,Ont   8,F,F,F,F,F,F,F
03-CHMO-11.4,0303-0037,Chaumont River,Clayton,zang rd. bridge.,44.175,-76.01555,6,ONT-8,T,F,T,T,T,T,T
03-CHMO-15.1,0303-0037,Chaumont River,Orleans,30 m above rte. 180 bridge.,44.19305,-75.96638,6,ONT-8,F,F,F,T,T,F,F
05-CHAN-0.7,0503-0001,Chauncey Run,Hornellsville,at east main street bridge.,42.32424,-77.638653,8,PA-3-57-5-46,T,F,T,T,T,T,T
01-CHAU-0.4,0105-0001,Chautauqua Creek,Westfield,50 m above rt. 5 bridge.,42.33696,-79.60059,9,E-68,T,T,T,T,T,T,T
01-CHAU-4.0,0105-0001,Chautauqua Creek,Westfield,125 m off mount baldy rd.,42.30599,-79.5766,9,Ont 158..E-68,T,F,T,T,T,T,T
01-CHAU-14.9,0105-0027,Chautauqua Creek,Westfield,10 m above putnam rd. bridge.,42.21111,-79.59804,9,E-68,T,F,T,T,T,F,F
01-WCHAU-3.7,0105-0001,Chautauqua Creek,Westfield,east off cr 74.,42.305943,-79.578365,9,E-68,F,F,F,F,F,F,F
13-WCHEE-0.6,1306-0061,Cheechunk Creek,Goshen,hartley rd.,41.4086,-74.37299,3,H-139-13-20 thru 53,T,T,T,T,T,T,T
05-CHEM-2.6,0501-0014,Chemung River,Chemung,50 m above rt.17 bridge(1st bridge east of chemung).,42.00139,-76.59527,8,PA-3,T,F,F,T,T,F,F
05-CHEM-5.4,0501-0014,Chemung River,Chemung,10 m below rt. 427 bridge.,42.00278,-76.63499,8,PA-3,T,T,T,T,T,T,T
05-CHEM-15.7,0501-0015,Chemung River,Elmira,500 m above power lines crossing river.,42.05833,-76.76055,8,PA-3,T,F,T,T,T,F,F
05-CHEM-22.9,0501-0016,Chemung River,Big Flats,100 m below sr 225 bridge (fitch bridge).,42.0822,-76.86594,8,PA-3,T,F,T,T,T,F,F
05-CHEM-28.3,0501-0016,Chemung River,Big Flats,500 meters west off rte 352.,42.120085,-76.934201,8,PA-3,T,F,T,T,T,T,T
05-CHEM-33.8,0501-0017,Chemung River,Corning,off river rd.; dirt rd. to flood control levee.,42.12615,-77.02604,8,PA-3,T,T,T,T,T,T,T
05-CHEM-33.6,0501-0017,Chemung River,Corning,off river rd.; dirt rd. to flood control levee.,42.127667,-77.028379,8,Pa 3 (portion 4),T,,T,,,T,T
06-LCNGO-0.0,0601-0013,Chenango Lake,New Berlin,Site Condition listed as test.,42.5826,-75.4412,7,SR-146-19- 6-1-P213,F,F,F,F,T,F,F
06-NANG-0.7,0602-0033,Chenango River,Binghamton,lockwood st. 0.2 mi. above rt. 17 bridge.,42.10306,-75.915,7,SR-44,T,T,T,T,T,T,T
06-NANG-13.7,0602-0009,Chenango River,Fenton,200 m below rt 79 bridge.,42.24278,-75.83806,7,SR-44,T,F,T,T,T,F,F
06-NANG-21.6,0602-0009,Chenango River,Greene,100 m above gaging station; 200 m above greene stp.,42.325063,-75.77134,7,SR-44,T,F,T,F,F,T,T
06-NANG-25.5,0602-0009,Chenango River,Greene,40 m below hogsback rd. bridge (bridge out).,42.35278,-75.72083,7,SR-44,T,F,T,T,T,F,F
06-NANG-37.3,0602-0164,Chenango River,Oxford,under bridge.,42.44167,-75.59639,7,SR-44,T,F,T,T,T,F,F
06-NANG-42.4,0602-0164,Chenango River,Norwich,at chenango asphalt products; below rr trestle.,42.48167,-75.53777,7,SR-44,T,F,T,T,T,F,F
06-NANG-47.2,0602-0164,Chenango River,Norwich,30 m below rte. 23 bridge.,42.53778,-75.51361,7,SR-44,T,F,T,T,T,F,F
06-NANG-48.1,0602-0069,Chenango River,Norwich,at sr 320.,42.553475,-75.523174,7,SR- 44 (portion 4),F,T,F,F,F,F,F
06-NANG-49.3,0602-0069,Chenango River,North Norwich,blw norwich-eaton dis.0.8 mi. north of rt320 inter.,42.567543,-75.519513,7,SR-44,T,F,T,T,T,T,T
06-NANG-50.8,0602-0069,Chenango River,North Norwich,at chenango auto below 1st bridge on farm rd.,42.58389,-75.52834,7,SR-44,T,F,T,T,T,F,F
06-NANG-54.4,0602-0069,Chenango River,North Norwich,150 m above rte. 12. rte. 23a bridge.,42.61945,-75.51082,7,SR-44,T,F,T,T,T,F,F
06-NANG-54.6,0602-0069,Chenango River,North Norwich,at chenango auto above 2nd bridge on farm rd.,42.58444,-75.52834,7,SR-44,T,F,T,T,T,F,F
06-NANG-55.3,0602-0069,Chenango River,North Norwich,where tracy rd. is closer to river-200 m above bridg.,42.62889,-75.50026,7,SR-44,T,F,T,T,T,F,F
06-NANG-66.3,0602-0069,Chenango River,Sherburne,off rte 12b.,42.70042,-75.52645,7,SR-44,T,F,T,T,T,T,T
06-NING-1.3,0602-0058,Cheningo Creek,Truxton,below rte 114 bridge.,42.67889,-76.04556,7,SR-44-14-59-9,T,F,T,F,F,F,F
06-NING-5.1,0602-0058,Cheningo Creek,Truxton,sprouse rd. off 91 south.,42.66304,-76.01336,7,SR-44-14-59-9,T,F,T,T,T,T,T
06-NING-7.7,0602-0058,Cheningo Creek,Solon,mount roderick rd.,42.6448,-75.9824,7,SR-44-14-59-9,F,F,F,F,F,F,F
06-NING-11.1,0602-0058,Cheningo Creek,Taylor,upstream of taylor valley rd. bridge (low gradient site).,42.609485,-75.954293,7,SR-44-14-59-9,T,F,F,F,F,T,T
04-NUND-0.8,0403-0036,Chenunda Creek,Wellsville,sr 19; 200 m above bridge.,42.08896,-77.91953,9,ONT-117-187,T,F,T,F,F,F,F
02-CHRY-0.1,0202-0049,Cherry Creek,Cherry Creek,At Dredge road crossing off from Cherry Creek Leon road. Listed as a wetland in 2021.,42.293393,-79.07707,9,Pa-63-39,T,,,,,,
06-CHER-0.5,0601-0022,Cherry Valley Creek,Middlefield,cr 356. 20 m below bridge.,42.59333,-74.92778,4,SR-195,T,F,T,T,T,F,F
06-CHER-1.3,0601-0174,Cherry Valley Creek,Cherry Valley,rte 166. 100 m below stormwater outlet for the village.,42.792,-74.758,4,SR-195,T,F,T,T,T,F,F
06-CHER-1.7,0601-0174,Cherry Valley Creek,Cherry Valley,10 m below school bridge behind post office and childrens center.,42.79805,-74.75916,4,SR-195,T,F,T,T,T,F,F
06-CHER-5.8,0601-0022,Cherry Valley Creek,Middlefield,cr 43. 30 m below old gage site.,42.6325,-74.88276,4,SR-195,T,F,T,T,T,F,F
06-CHER-12.7,0601-0022,Cherry Valley Creek,Middlefield,rte. 35. 50 m above bridge.,42.68972,-74.84221,4,SR-195,T,F,T,T,T,T,T
06-CHER-22.6,0601-0174,Cherry Valley Creek,Roseboom,dirt rd. off rt. 166; opposite co. rt. 33.,42.75917,-74.77194,4,SR-195,T,F,T,T,T,F,F
11-CHST-2.5,1104-0201,Chester Brook,Chester,intersection route 8 and 9.,43.656,-73.801,5,H-391-33,T,T,T,T,T,T,T
11-CHST-0.2,1104-0201,Chester Creek,Chester,5 m above schroon river rd. (co rte 30) bridge.,43.67417,-73.77861,5,H-391-33,T,F,T,T,T,F,F
13-CHES-1.5,1306-0009,Chestnut Creek,Neversink,10 m below rte 42 bridge.,41.84861,-74.53306,3,H-139-14-P815a-48,T,F,T,T,T,F,F
10-CHLS-0.6,1006-0018,Chilson Brook,Ticonderoga,45 m n of old chilson rd. (cr 48).,43.857407,-73.447807,5,C-101- 1,T,F,T,T,T,T,T
02-CHIP-0.4,0201-0044,Chipmunk Creek,Carrollton,20 m above south nine mile rd. bridge.,42.08474,-78.61216,9,PA-53-39,T,F,T,T,T,F,F
02-CHIP-1.1,0201-0044,Chipmunk Creek,Carrollton,off south nine mile rd.,42.081667,-78.603056,9,Pa-53-39,F,T,F,F,F,F,F
02-CHIP-4.8,0201-0044,Chipmunk Creek,Allegany,off chipmunk rd.,42.041229,-78.55726,9,Pa-53-39,F,F,F,T,T,F,T
09-CHPW-0.7,0901-0022,Chippewa Creek,Hammond,chippewa route 12 bridge. thousand islands land trust access site.,44.46144,-75.74911,6,SL-33,T,F,F,F,F,F,F
09-CHPW-11.0,0901-0022,Chippewa Creek,Morristown,rt. 37 pull-off.,44.52528,-75.66167,6,SL-33,T,F,T,F,T,T,T
